[{"faa":"04G","name":"Lansdowne Airport","lat":41.1304722,"lon":-80.6195833,"alt":1044,"tz":-5,"dst":"A","tzone":"America\/New_York"},{"faa":"06A","name":"Moton Field Municipal Airport","lat":32.4605722,"lon":-85.6800278,"alt":264,"tz":-6,"dst":"A","tzone":"America\/Chicago"},{"faa":"06C","name":"Schaumburg Regional","lat":41.9893408,"lon":-88.1012428,"alt":801,"tz":-6,"dst":"A","tzone":"America\/Chicago"},{"faa":"06N","name":"Randall Airport","lat":41.431912,"lon":-74.3915611,"alt":523,"tz":-5,"dst":"A","tzone":"America\/New_York"},{"faa":"09J","name":"Jekyll Island Airport","lat":31.0744722,"lon":-81.4277778,"alt":11,"tz":-5,"dst":"A","tzone":"America\/New_York"},{"faa":"0A9","name":"Elizabethton Municipal Airport","lat":36.3712222,"lon":-82.1734167,"alt":1593,"tz":-5,"dst":"A","tzone":"America\/New_York"},{"faa":"0G6","name":"Williams County Airport","lat":41.4673056,"lon":-84.5067778,"alt":730,"tz":-5,"dst":"A","tzone":"America\/New_York"},{"faa":"0G7","name":"Finger Lakes Regional Airport","lat":42.8835647,"lon":-76.7812318,"alt":492,"tz":-5,"dst":"A","tzone":"America\/New_York"},{"faa":"0P2","name":"Shoestring Aviation Airfield","lat":39.7948244,"lon":-76.6471914,"alt":1000,"tz":-5,"dst":"U","tzone":"America\/New_York"},{"faa":"0S9","name":"Jefferson County Intl","lat":48.0538086,"lon":-122.8106436,"alt":108,"tz":-8,"dst":"A","tzone":"America\/Los_Angeles"},{"faa":"0W3","name":"Harford County Airport","lat":39.5668378,"lon":-76.2024028,"alt":409,"tz":-5,"dst":"A","tzone":"America\/New_York"},{"faa":"10C","name":"Galt Field Airport","lat":42.4028889,"lon":-88.3751111,"alt":875,"tz":-6,"dst":"U","tzone":"America\/Chicago"},{"faa":"17G","name":"Port Bucyrus-Crawford County Airport","lat":40.7815556,"lon":-82.9748056,"alt":1003,"tz":-5,"dst":"A","tzone":"America\/New_York"},{"faa":"19A","name":"Jackson County Airport","lat":34.1758638,"lon":-83.5615972,"alt":951,"tz":-5,"dst":"U","tzone":"America\/New_York"},{"faa":"1A3","name":"Martin Campbell Field Airport","lat":35.0158056,"lon":-84.3468333,"alt":1789,"tz":-5,"dst":"A","tzone":"America\/New_York"},{"faa":"1B9","name":"Mansfield Municipal","lat":42.0001331,"lon":-71.1967714,"alt":122,"tz":-5,"dst":"A","tzone":"America\/New_York"},{"faa":"1C9","name":"Frazier Lake Airpark","lat":54.0133333333,"lon":-124.7683333333,"alt":152,"tz":-8,"dst":"A","tzone":"America\/Vancouver"},{"faa":"1CS","name":"Clow International Airport","lat":41.6959744,"lon":-88.1292306,"alt":670,"tz":-6,"dst":"U","tzone":"America\/Chicago"},{"faa":"1G3","name":"Kent State Airport","lat":41.1513889,"lon":-81.4151111,"alt":1134,"tz":-5,"dst":"A","tzone":"America\/New_York"},{"faa":"1G4","name":"Grand Canyon West Airport","lat":35.899904,"lon":-113.815674,"alt":4813,"tz":-7,"dst":"A","tzone":"America\/Phoenix"},{"faa":"1H2","name":"Effingham Memorial Airport","lat":39.07,"lon":-88.534,"alt":585,"tz":-6,"dst":"A","tzone":"America\/Chicago"},{"faa":"1OH","name":"Fortman Airport","lat":40.5553253,"lon":-84.3866186,"alt":885,"tz":-5,"dst":"U","tzone":"America\/New_York"},{"faa":"1RL","name":"Point Roberts Airpark","lat":48.9797222,"lon":-123.0788889,"alt":10,"tz":-8,"dst":"A","tzone":"America\/Los_Angeles"},{"faa":"23M","name":"Clarke CO","lat":32.0517,"lon":-88.4434,"alt":320,"tz":-6,"dst":"A","tzone":"America\/Chicago"},{"faa":"24C","name":"Lowell City Airport","lat":42.95392,"lon":-85.3439058,"alt":681,"tz":-5,"dst":"A","tzone":"America\/New_York"},{"faa":"24J","name":"Suwannee County Airport","lat":30.300125,"lon":-83.0246944,"alt":104,"tz":-5,"dst":"A","tzone":"America\/New_York"},{"faa":"25D","name":"Forest Lake Airport","lat":45.2477456,"lon":-92.9943853,"alt":925,"tz":-6,"dst":"A","tzone":"America\/Chicago"},{"faa":"29D","name":"Grove City Airport","lat":41.1460278,"lon":-80.16775,"alt":1371,"tz":-5,"dst":"A","tzone":"America\/New_York"},{"faa":"2A0","name":"Mark Anton Airport","lat":35.48625,"lon":-84.9310833,"alt":718,"tz":-5,"dst":"A","tzone":"America\/New_York"},{"faa":"2B2","name":"Plum Island Airport","lat":42.7953611,"lon":-70.8394444,"alt":11,"tz":-5,"dst":"A","tzone":"America\/New_York"},{"faa":"2G2","name":"Jefferson County Airpark","lat":40.3602179,"lon":-80.7008742,"alt":1196,"tz":-5,"dst":"A","tzone":"America\/New_York"},{"faa":"2G9","name":"Somerset County Airport","lat":40.0388708,"lon":-79.0149951,"alt":2275,"tz":-5,"dst":"A","tzone":"America\/New_York"},{"faa":"2H0","name":"Shelby County Airport","lat":39.410556,"lon":-88.845556,"alt":550,"tz":-6,"dst":"A","tzone":"America\/Chicago"},{"faa":"2J9","name":"Quincy Municipal Airport","lat":30.5978708,"lon":-84.557425,"alt":225,"tz":-5,"dst":"A","tzone":"America\/New_York"},{"faa":"369","name":"Atmautluak Airport","lat":60.866667,"lon":-162.273056,"alt":18,"tz":-9,"dst":"A","tzone":"America\/Anchorage"},{"faa":"36U","name":"Heber City Municipal Airport","lat":40.4818056,"lon":-111.4288056,"alt":5637,"tz":-7,"dst":"A","tzone":"America\/Denver"},{"faa":"38W","name":"Lynden Airport","lat":48.9558961,"lon":-122.4581183,"alt":106,"tz":-8,"dst":"A","tzone":"America\/Los_Angeles"},{"faa":"3D2","name":"Ephraim-Gibraltar Airport","lat":45.1354167,"lon":-87.1879444,"alt":773,"tz":-6,"dst":"A","tzone":"America\/Chicago"},{"faa":"3G3","name":"Wadsworth Municipal","lat":41.0031572,"lon":-81.7564401,"alt":974,"tz":-5,"dst":"A","tzone":"America\/New_York"},{"faa":"3G4","name":"Ashland County Airport","lat":40.9029722,"lon":-82.2556389,"alt":1206,"tz":-5,"dst":"A","tzone":"America\/New_York"},{"faa":"3J1","name":"Ridgeland Airport","lat":32.4934167,"lon":-80.99175,"alt":79,"tz":-5,"dst":"A","tzone":"America\/New_York"},{"faa":"3W2","name":"Put-in-Bay Airport","lat":41.3521,"lon":-82.497,"alt":595,"tz":-5,"dst":"A","tzone":"America\/New_York"},{"faa":"40J","name":"Perry-Foley Airport","lat":30.0692778,"lon":-83.5805833,"alt":44,"tz":-5,"dst":"A","tzone":"America\/New_York"},{"faa":"41N","name":"Braceville Airport","lat":41.2111675,"lon":-80.9692572,"alt":900,"tz":-5,"dst":"A","tzone":"America\/New_York"},{"faa":"47A","name":"Cherokee County Airport","lat":34.3122175,"lon":-84.4221556,"alt":1219,"tz":-5,"dst":"A","tzone":"America\/New_York"},{"faa":"49A","name":"Gilmer County Airport","lat":34.6282222,"lon":-84.5265833,"alt":1486,"tz":-5,"dst":"A","tzone":"America\/New_York"},{"faa":"49X","name":"Chemehuevi Valley","lat":34.528889,"lon":-114.431971,"alt":638,"tz":-8,"dst":"A","tzone":"America\/Los_Angeles"},{"faa":"4A4","name":"Polk County Airport - Cornelius Moore Field","lat":34.0186944,"lon":-85.1464722,"alt":974,"tz":-5,"dst":"A","tzone":"America\/New_York"},{"faa":"4A7","name":"Clayton County Tara Field","lat":33.389099,"lon":-84.332397,"alt":874,"tz":-5,"dst":"A","tzone":"America\/New_York"},{"faa":"4A9","name":"Isbell Field Airport","lat":34.4736944,"lon":-85.7213889,"alt":877,"tz":-6,"dst":"A","tzone":"America\/Chicago"},{"faa":"4B8","name":"Robertson Field","lat":41.6893333,"lon":-72.8646944,"alt":202,"tz":-5,"dst":"A","tzone":"America\/New_York"},{"faa":"4G0","name":"Pittsburgh-Monroeville Airport","lat":40.4526389,"lon":-79.7749167,"alt":1187,"tz":-5,"dst":"A","tzone":"America\/New_York"},{"faa":"4G2","name":"Hamburg Inc Airport","lat":42.7008925,"lon":-78.9147569,"alt":751,"tz":-5,"dst":"A","tzone":"America\/New_York"},{"faa":"4G4","name":"Youngstown Elser Metro Airport","lat":40.9617953,"lon":-80.6773264,"alt":1070,"tz":-5,"dst":"A","tzone":"America\/New_York"},{"faa":"4I7","name":"Putnam County Airport","lat":39.6335556,"lon":-86.8138056,"alt":842,"tz":-5,"dst":"U","tzone":"America\/New_York"},{"faa":"4U9","name":"Dell Flight Strip","lat":44.7357483,"lon":-112.7200133,"alt":6007,"tz":-7,"dst":"A","tzone":"America\/Denver"},{"faa":"52A","name":"Madison GA Municipal Airport","lat":33.612125,"lon":-83.4604444,"alt":694,"tz":-5,"dst":"A","tzone":"America\/New_York"},{"faa":"54J","name":"DeFuniak Springs Airport","lat":30.7311111,"lon":-86.1537778,"alt":289,"tz":-6,"dst":"A","tzone":"America\/Chicago"},{"faa":"55J","name":"Fernandina Beach Municipal Airport","lat":30.6118333,"lon":-81.4611944,"alt":16,"tz":-5,"dst":"A","tzone":"America\/New_York"},{"faa":"55S","name":"Packwood","lat":46.3625,"lon":-121.4067,"alt":1057,"tz":-8,"dst":"A","tzone":"America\/Los_Angeles"},{"faa":"57C","name":"East Troy Municipal Airport","lat":42.7971667,"lon":-88.3726111,"alt":860,"tz":-6,"dst":"A","tzone":"America\/Chicago"},{"faa":"5B2","name":"Saratoga County Airport","lat":43.050722,"lon":-73.861638,"alt":433,"tz":-5,"dst":"A","tzone":"America\/New_York"},{"faa":"60J","name":"Ocean Isle Beach Airport","lat":33.9085056,"lon":-78.4366722,"alt":32,"tz":-5,"dst":"U","tzone":"America\/New_York"},{"faa":"6A2","name":"Griffin-Spalding County Airport","lat":33.2269722,"lon":-84.2749444,"alt":958,"tz":-5,"dst":"A","tzone":"America\/New_York"},{"faa":"6J4","name":"Saluda County","lat":33.5561,"lon":-81.4768,"alt":539,"tz":-5,"dst":"A","tzone":"America\/New_York"},{"faa":"6K8","name":"Tok Junction Airport","lat":63.329444,"lon":-142.953611,"alt":1639,"tz":-9,"dst":"A","tzone":"America\/Anchorage"},{"faa":"6S0","name":"Big Timber Airport","lat":45.8063889,"lon":-109.9811111,"alt":4492,"tz":-7,"dst":"A","tzone":"America\/Denver"},{"faa":"6S2","name":"Florence","lat":43.9828168,"lon":-124.1113687,"alt":51,"tz":-8,"dst":"A","tzone":"America\/Los_Angeles"},{"faa":"6Y8","name":"Welke Airport","lat":45.721111,"lon":-85.520278,"alt":664,"tz":-5,"dst":"A","tzone":"America\/New_York"},{"faa":"70J","name":"Cairo-Grady County Airport","lat":30.8879767,"lon":-84.1547353,"alt":265,"tz":-5,"dst":"A","tzone":"America\/New_York"},{"faa":"70N","name":"Spring Hill Airport","lat":41.3473569,"lon":-75.4158972,"alt":1729,"tz":-5,"dst":"A","tzone":"America\/New_York"},{"faa":"7A4","name":"Foster Field","lat":42.4664444,"lon":-90.1693889,"alt":990,"tz":-6,"dst":"A","tzone":"America\/Chicago"},{"faa":"7D9","name":"Germack Airport","lat":41.7778322,"lon":-80.9039797,"alt":820,"tz":-5,"dst":"A","tzone":"America\/New_York"},{"faa":"7N7","name":"Spitfire Aerodrome","lat":39.7355633,"lon":-75.3977211,"alt":40,"tz":-5,"dst":"A","tzone":"America\/New_York"},{"faa":"8M8","name":"Garland Airport","lat":44.8065278,"lon":-84.2761944,"alt":1218,"tz":-5,"dst":"A","tzone":"America\/New_York"},{"faa":"93C","name":"Richland Airport","lat":43.2833575,"lon":-90.2982819,"alt":742,"tz":-6,"dst":"A","tzone":"America\/Chicago"},{"faa":"99N","name":"Bamberg County Airport","lat":33.3045278,"lon":-81.1084167,"alt":231,"tz":-5,"dst":"A","tzone":"America\/New_York"},{"faa":"9A1","name":"Covington Municipal Airport","lat":33.6323083,"lon":-83.8474472,"alt":809,"tz":-5,"dst":"A","tzone":"America\/New_York"},{"faa":"9A5","name":"Barwick Lafayette Airport","lat":34.6884792,"lon":-85.2903319,"alt":777,"tz":-5,"dst":"A","tzone":"America\/New_York"},{"faa":"9G1","name":"Rock Airport","lat":40.6035463,"lon":-79.8261189,"alt":1063,"tz":-5,"dst":"A","tzone":"America\/New_York"},{"faa":"A39","name":"Phoenix Regional Airport","lat":32.9916992188,"lon":-111.9209976196,"alt":1300,"tz":-7,"dst":"A","tzone":"America\/Phoenix"},{"faa":"A50","name":"Colorado Springs East","lat":38.87,"lon":-104.41,"alt":6145,"tz":-7,"dst":"A","tzone":"America\/Denver"},{"faa":"AAF","name":"Apalachicola Regional Airport","lat":29.7276066,"lon":-85.0274416,"alt":20,"tz":-5,"dst":"A","tzone":"America\/New_York"},{"faa":"AAP","name":"Andrau Airport","lat":29.43,"lon":-95.35,"alt":80,"tz":-6,"dst":"A","tzone":"America\/Chicago"},{"faa":"ABE","name":"Lehigh Valley Intl","lat":40.652083,"lon":-75.440806,"alt":393,"tz":-5,"dst":"A","tzone":"America\/New_York"},{"faa":"ABI","name":"Abilene Rgnl","lat":32.411319,"lon":-99.681897,"alt":1791,"tz":-6,"dst":"A","tzone":"America\/Chicago"},{"faa":"ABL","name":"Ambler Airport","lat":67.106389,"lon":-157.8575,"alt":334,"tz":-9,"dst":"A","tzone":"America\/Anchorage"},{"faa":"ABQ","name":"Albuquerque International Sunport","lat":35.0402222,"lon":-106.6091944,"alt":5355,"tz":-7,"dst":"A","tzone":"America\/Denver"},{"faa":"ABR","name":"Aberdeen Regional Airport","lat":45.4491,"lon":-98.4218,"alt":1302,"tz":-6,"dst":"A","tzone":"America\/Chicago"},{"faa":"ABY","name":"Southwest Georgia Regional Airport","lat":31.5355,"lon":-84.1945,"alt":197,"tz":-5,"dst":"A","tzone":"America\/New_York"},{"faa":"ACJ","name":"Jimmy Carter Regional","lat":32.0665,"lon":-84.1133,"alt":468,"tz":-5,"dst":"A","tzone":"America\/New_York"},{"faa":"ACK","name":"Nantucket Mem","lat":41.253053,"lon":-70.060181,"alt":48,"tz":-5,"dst":"A","tzone":"America\/New_York"},{"faa":"ACT","name":"Waco Rgnl","lat":31.611289,"lon":-97.230519,"alt":516,"tz":-6,"dst":"A","tzone":"America\/Chicago"},{"faa":"ACV","name":"Arcata","lat":40.978111,"lon":-124.108611,"alt":221,"tz":-8,"dst":"A","tzone":"America\/Los_Angeles"},{"faa":"ACY","name":"Atlantic City Intl","lat":39.457583,"lon":-74.577167,"alt":75,"tz":-5,"dst":"A","tzone":"America\/New_York"},{"faa":"ADK","name":"Adak Airport","lat":51.878,"lon":-176.646,"alt":18,"tz":-9,"dst":"A","tzone":"America\/Anchorage"},{"faa":"ADM","name":"Ardmore Muni","lat":34.300833,"lon":-97.008889,"alt":762,"tz":-6,"dst":"A","tzone":"America\/Chicago"},{"faa":"ADQ","name":"Kodiak","lat":57.749967,"lon":-152.493856,"alt":78,"tz":-9,"dst":"A","tzone":"America\/Anchorage"},{"faa":"ADS","name":"Addison","lat":32.9685594,"lon":-96.8364478,"alt":644,"tz":-6,"dst":"A","tzone":"America\/Chicago"},{"faa":"ADW","name":"Andrews Afb","lat":38.810806,"lon":-76.867028,"alt":280,"tz":-5,"dst":"A","tzone":"America\/New_York"},{"faa":"AET","name":"Allakaket Airport","lat":66.5519,"lon":-152.6222,"alt":441,"tz":-9,"dst":"A","tzone":"America\/Anchorage"},{"faa":"AEX","name":"Alexandria Intl","lat":31.3274,"lon":-92.549833,"alt":89,"tz":-6,"dst":"A","tzone":"America\/Chicago"},{"faa":"AFE","name":"Kake Airport","lat":56.961389,"lon":-133.910278,"alt":172,"tz":-9,"dst":"A","tzone":"America\/Anchorage"},{"faa":"AFW","name":"Fort Worth Alliance Airport","lat":32.987778,"lon":-97.318889,"alt":722,"tz":-6,"dst":"A","tzone":"America\/Chicago"},{"faa":"AGC","name":"Allegheny County Airport","lat":40.3544,"lon":-79.9302,"alt":1252,"tz":-5,"dst":"A","tzone":"America\/New_York"},{"faa":"AGN","name":"Angoon Seaplane Base","lat":57.503611,"lon":-134.585,"alt":0,"tz":-9,"dst":"A","tzone":"America\/Anchorage"},{"faa":"AGS","name":"Augusta Rgnl At Bush Fld","lat":33.369944,"lon":-81.9645,"alt":144,"tz":-5,"dst":"A","tzone":"America\/New_York"},{"faa":"AHN","name":"Athens Ben Epps Airport","lat":33.9486,"lon":-83.3263,"alt":808,"tz":-5,"dst":"A","tzone":"America\/New_York"},{"faa":"AIA","name":"Alliance Municipal Airport","lat":42.053333,"lon":-102.803889,"alt":3931,"tz":-7,"dst":"A","tzone":"America\/Denver"},{"faa":"AIK","name":"Municipal Airport","lat":33.6493889,"lon":-81.6850278,"alt":529,"tz":-5,"dst":"A","tzone":"America\/New_York"},{"faa":"AIN","name":"Wainwright Airport","lat":70.638056,"lon":-159.994722,"alt":41,"tz":-9,"dst":"A","tzone":"America\/Anchorage"},{"faa":"AIZ","name":"Lee C Fine Memorial Airport","lat":38.096035,"lon":-92.5494875,"alt":869,"tz":-6,"dst":"A","tzone":"America\/Chicago"},{"faa":"AKB","name":"Atka Airport","lat":52.220278,"lon":-174.206389,"alt":56,"tz":-9,"dst":"A","tzone":"America\/Anchorage"},{"faa":"AKC","name":"Akron Fulton Intl","lat":41.0375,"lon":-81.466917,"alt":1067,"tz":-5,"dst":"A","tzone":"America\/New_York"},{"faa":"AKI","name":"Akiak Airport","lat":60.902778,"lon":-161.230556,"alt":30,"tz":-9,"dst":"A","tzone":"America\/Anchorage"},{"faa":"AKK","name":"Akhiok Airport","lat":56.938611,"lon":-154.1825,"alt":44,"tz":-9,"dst":"A","tzone":"America\/Anchorage"},{"faa":"AKN","name":"King Salmon","lat":58.676778,"lon":-156.649278,"alt":68,"tz":-9,"dst":"A","tzone":"America\/Anchorage"},{"faa":"AKP","name":"Anaktuvuk Pass Airport","lat":68.1336,"lon":-151.743,"alt":2103,"tz":-9,"dst":"A","tzone":"America\/Anchorage"},{"faa":"ALB","name":"Albany Intl","lat":42.748267,"lon":-73.801692,"alt":285,"tz":-5,"dst":"A","tzone":"America\/New_York"},{"faa":"ALI","name":"Alice Intl","lat":27.740889,"lon":-98.026944,"alt":178,"tz":-6,"dst":"A","tzone":"America\/Chicago"},{"faa":"ALM","name":"Alamogordo White Sands Regional Airport","lat":32.8399,"lon":-105.991,"alt":4200,"tz":-7,"dst":"A","tzone":"America\/Denver"},{"faa":"ALO","name":"Waterloo Regional Airport","lat":42.5571,"lon":-92.4003,"alt":873,"tz":-6,"dst":"A","tzone":"America\/Chicago"},{"faa":"ALS","name":"San Luis Valley Regional Airport","lat":37.435,"lon":-105.866667,"alt":7539,"tz":-7,"dst":"A","tzone":"America\/Denver"},{"faa":"ALW","name":"Walla Walla Regional Airport","lat":46.0949,"lon":-118.288,"alt":1191,"tz":-8,"dst":"A","tzone":"America\/Los_Angeles"},{"faa":"ALX","name":"Alexandria","lat":38.806346,"lon":-77.0621,"alt":1,"tz":-5,"dst":"A","tzone":"America\/New_York"},{"faa":"ALZ","name":"Alitak Seaplane Base","lat":56.899444,"lon":-154.247778,"alt":0,"tz":-9,"dst":"A","tzone":"America\/Anchorage"},{"faa":"AMA","name":"Rick Husband Amarillo Intl","lat":35.219369,"lon":-101.705931,"alt":3607,"tz":-6,"dst":"A","tzone":"America\/Chicago"},{"faa":"ANB","name":"Anniston Metro","lat":33.588167,"lon":-85.858111,"alt":612,"tz":-6,"dst":"A","tzone":"America\/Chicago"},{"faa":"ANC","name":"Ted Stevens Anchorage Intl","lat":61.174361,"lon":-149.996361,"alt":152,"tz":-9,"dst":"A","tzone":"America\/Anchorage"},{"faa":"AND","name":"Anderson Rgnl","lat":34.494583,"lon":-82.709389,"alt":782,"tz":-5,"dst":"A","tzone":"America\/New_York"},{"faa":"ANI","name":"Aniak Airport","lat":61.5816,"lon":-159.543,"alt":88,"tz":-9,"dst":"A","tzone":"America\/Anchorage"},{"faa":"ANN","name":"Annette Island","lat":55.042436,"lon":-131.572233,"alt":119,"tz":-9,"dst":"A","tzone":"America\/Anchorage"},{"faa":"ANP","name":"Lee Airport","lat":38.942778,"lon":-76.568333,"alt":34,"tz":-5,"dst":"A","tzone":"America\/New_York"},{"faa":"ANQ","name":"Tri-State Steuben County Airport","lat":41.6396983,"lon":-85.0834933,"alt":995,"tz":-5,"dst":"A","tzone":"America\/New_York"},{"faa":"ANV","name":"Anvik Airport","lat":62.6467,"lon":-160.191,"alt":309,"tz":-9,"dst":"A","tzone":"America\/Anchorage"},{"faa":"AOH","name":"Lima Allen County Airport","lat":40.707478,"lon":-84.0270781,"alt":975,"tz":-5,"dst":"A","tzone":"America\/New_York"},{"faa":"AOO","name":"Altoona Blair Co","lat":40.296372,"lon":-78.320022,"alt":1504,"tz":-5,"dst":"A","tzone":"America\/New_York"},{"faa":"AOS","name":"Amook Bay Seaplane Base","lat":57.471389,"lon":-153.815278,"alt":0,"tz":-9,"dst":"A","tzone":"America\/Anchorage"},{"faa":"APA","name":"Centennial","lat":39.570129,"lon":-104.849294,"alt":5883,"tz":-7,"dst":"A","tzone":"America\/Denver"},{"faa":"APC","name":"Napa County Airport","lat":38.2131944,"lon":-122.2806944,"alt":35,"tz":-8,"dst":"A","tzone":"America\/Los_Angeles"},{"faa":"APF","name":"Naples Muni","lat":26.152619,"lon":-81.775294,"alt":8,"tz":-5,"dst":"A","tzone":"America\/New_York"},{"faa":"APG","name":"Phillips Aaf","lat":39.466219,"lon":-76.168808,"alt":57,"tz":-5,"dst":"A","tzone":"America\/New_York"},{"faa":"APN","name":"Alpena County Regional Airport","lat":45.0781,"lon":-83.5603,"alt":689,"tz":-5,"dst":"A","tzone":"America\/New_York"},{"faa":"AQC","name":"Klawock Seaplane Base","lat":55.554658,"lon":-133.101693,"alt":0,"tz":-9,"dst":"A","tzone":"America\/Anchorage"},{"faa":"ARA","name":"Acadiana Rgnl","lat":30.037758,"lon":-91.883896,"alt":24,"tz":-6,"dst":"A","tzone":"America\/Chicago"},{"faa":"ARB","name":"Ann Arbor Municipal Airport","lat":42.132274,"lon":-83.444418,"alt":839,"tz":-5,"dst":"A","tzone":"America\/New_York"},{"faa":"ARC","name":"Arctic Village Airport","lat":68.1147,"lon":-145.579,"alt":2092,"tz":-9,"dst":"A","tzone":"America\/Anchorage"},{"faa":"ART","name":"Watertown Intl","lat":43.991922,"lon":-76.021739,"alt":325,"tz":-5,"dst":"A","tzone":"America\/New_York"},{"faa":"ARV","name":"Lakeland","lat":45.927778,"lon":-89.730833,"alt":1629,"tz":-6,"dst":"A","tzone":"America\/Chicago"},{"faa":"ASE","name":"Aspen Pitkin County Sardy Field","lat":39.2232,"lon":-106.869,"alt":7820,"tz":-7,"dst":"A","tzone":"America\/Denver"},{"faa":"ASH","name":"Boire Field Airport","lat":42.78175,"lon":-71.5147778,"alt":199,"tz":-5,"dst":"A","tzone":"America\/New_York"},{"faa":"AST","name":"Astoria Regional Airport","lat":46.157972,"lon":-123.878694,"alt":15,"tz":-8,"dst":"A","tzone":"America\/Los_Angeles"},{"faa":"ATK","name":"Atqasuk Edward Burnell Sr Memorial Airport","lat":70.4673,"lon":-157.436,"alt":96,"tz":-9,"dst":"A","tzone":"America\/Anchorage"},{"faa":"ATL","name":"Hartsfield Jackson Atlanta Intl","lat":33.636719,"lon":-84.428067,"alt":1026,"tz":-5,"dst":"A","tzone":"America\/New_York"},{"faa":"ATT","name":"Camp Mabry Austin City","lat":30.31666,"lon":-97.7666,"alt":0,"tz":-6,"dst":"A","tzone":"America\/Chicago"},{"faa":"ATW","name":"Appleton","lat":44.257526,"lon":-88.507576,"alt":680,"tz":-6,"dst":"A","tzone":"America\/Chicago"},{"faa":"ATY","name":"Watertown Regional Airport","lat":44.914,"lon":-97.1547,"alt":1748,"tz":-6,"dst":"A","tzone":"America\/Chicago"},{"faa":"AUG","name":"Augusta State","lat":44.320647,"lon":-69.797317,"alt":352,"tz":-5,"dst":"A","tzone":"America\/New_York"},{"faa":"AUK","name":"Alakanuk Airport","lat":62.68,"lon":-164.66,"alt":10,"tz":-9,"dst":"A","tzone":"America\/Anchorage"},{"faa":"AUO","name":"Auburn University Regional","lat":32.3691,"lon":-85.2604,"alt":777,"tz":-6,"dst":"A","tzone":"America\/Chicago"},{"faa":"AUS","name":"Austin Bergstrom Intl","lat":30.194528,"lon":-97.669889,"alt":542,"tz":-6,"dst":"A","tzone":"America\/Chicago"},{"faa":"AUW","name":"Wausau Downtown Airport","lat":44.9262845,"lon":-89.6270018,"alt":1201,"tz":-6,"dst":"U","tzone":"America\/Chicago"},{"faa":"AVL","name":"Asheville Regional Airport","lat":35.436194,"lon":-82.541806,"alt":2165,"tz":-5,"dst":"A","tzone":"America\/New_York"},{"faa":"AVO","name":"Executive","lat":27.591389,"lon":-81.528889,"alt":160,"tz":-5,"dst":"A","tzone":"America\/New_York"},{"faa":"AVP","name":"Wilkes Barre Scranton Intl","lat":41.338478,"lon":-75.723403,"alt":962,"tz":-5,"dst":"A","tzone":"America\/New_York"},{"faa":"AVW","name":"Marana Regional","lat":32.409556,"lon":-111.218388,"alt":2031,"tz":-7,"dst":"U","tzone":"America\/Phoenix"},{"faa":"AVX","name":"Avalon","lat":33.405,"lon":-118.415833,"alt":1602,"tz":-8,"dst":"A","tzone":"America\/Los_Angeles"},{"faa":"AZA","name":"Phoenix-Mesa Gateway","lat":33.307833,"lon":-111.655,"alt":1382,"tz":-7,"dst":"N","tzone":"America\/Phoenix"},{"faa":"AZO","name":"Kalamazoo","lat":42.234875,"lon":-85.552058,"alt":874,"tz":-5,"dst":"A","tzone":"America\/New_York"},{"faa":"BAB","name":"Beale Afb","lat":39.136089,"lon":-121.436567,"alt":113,"tz":-8,"dst":"A","tzone":"America\/Los_Angeles"},{"faa":"BAD","name":"Barksdale Afb","lat":32.50182,"lon":-93.662674,"alt":166,"tz":-6,"dst":"A","tzone":"America\/Chicago"},{"faa":"BAF","name":"Barnes Municipal","lat":42.1579472,"lon":-72.715875,"alt":270,"tz":-5,"dst":"A","tzone":"America\/New_York"},{"faa":"BBX","name":"Wings Field","lat":40.1375,"lon":-75.265,"alt":302,"tz":-5,"dst":"A","tzone":"America\/New_York"},{"faa":"BCE","name":"Bryce Canyon","lat":37.706444,"lon":-112.145806,"alt":7590,"tz":-7,"dst":"A","tzone":"America\/Denver"},{"faa":"BCT","name":"Boca Raton","lat":26.3785,"lon":-80.107694,"alt":13,"tz":-5,"dst":"A","tzone":"America\/New_York"},{"faa":"BDE","name":"Baudette Intl","lat":48.728444,"lon":-94.612222,"alt":1086,"tz":-6,"dst":"A","tzone":"America\/Chicago"},{"faa":"BDL","name":"Bradley Intl","lat":41.938889,"lon":-72.683222,"alt":173,"tz":-5,"dst":"A","tzone":"America\/New_York"},{"faa":"BDR","name":"Igor I Sikorsky Mem","lat":41.163472,"lon":-73.126167,"alt":9,"tz":-5,"dst":"A","tzone":"America\/New_York"},{"faa":"BEC","name":"Beech Factory Airport","lat":37.6939167,"lon":-97.2149167,"alt":1409,"tz":-6,"dst":"A","tzone":"America\/Chicago"},{"faa":"BED","name":"Laurence G Hanscom Fld","lat":42.469953,"lon":-71.289031,"alt":133,"tz":-5,"dst":"A","tzone":"America\/New_York"},{"faa":"BEH","name":"Southwest Michigan Regional Airport","lat":42.1285833,"lon":-86.4285,"alt":643,"tz":-5,"dst":"A","tzone":"America\/New_York"},{"faa":"BET","name":"Bethel","lat":60.779778,"lon":-161.838,"alt":121,"tz":-9,"dst":"A","tzone":"America\/Anchorage"},{"faa":"BFD","name":"Bradford Regional Airport","lat":41.8031,"lon":-78.6401,"alt":2143,"tz":-5,"dst":"A","tzone":"America\/New_York"},{"faa":"BFF","name":"Western Nebraska Regional Airport","lat":41.874,"lon":-103.596,"alt":3967,"tz":-7,"dst":"A","tzone":"America\/Denver"},{"faa":"BFI","name":"Boeing Fld King Co Intl","lat":47.53,"lon":-122.301947,"alt":21,"tz":-8,"dst":"A","tzone":"America\/Los_Angeles"},{"faa":"BFL","name":"Meadows Fld","lat":35.433598,"lon":-119.05677,"alt":507,"tz":-8,"dst":"A","tzone":"America\/Los_Angeles"},{"faa":"BFM","name":"Mobile Downtown","lat":30.626783,"lon":-88.068092,"alt":26,"tz":-6,"dst":"A","tzone":"America\/Chicago"},{"faa":"BFP","name":"Beaver Falls","lat":40.7724722,"lon":-80.3914444,"alt":1253,"tz":-5,"dst":"A","tzone":"America\/New_York"},{"faa":"BFT","name":"Beaufort","lat":32.477411,"lon":-80.723161,"alt":37,"tz":-5,"dst":"A","tzone":"America\/New_York"},{"faa":"BGE","name":"Decatur County Industrial Air Park","lat":30.9715981,"lon":-84.6369278,"alt":141,"tz":-5,"dst":"A","tzone":"America\/New_York"},{"faa":"BGM","name":"Greater Binghamton Edwin A Link Fld","lat":42.208689,"lon":-75.979839,"alt":1636,"tz":-5,"dst":"A","tzone":"America\/New_York"},{"faa":"BGR","name":"Bangor Intl","lat":44.807444,"lon":-68.828139,"alt":192,"tz":-5,"dst":"A","tzone":"America\/New_York"},{"faa":"BHB","name":"Hancock County - Bar Harbor","lat":44.4497689,"lon":-68.3615653,"alt":83,"tz":-5,"dst":"A","tzone":"America\/New_York"},{"faa":"BHM","name":"Birmingham Intl","lat":33.562942,"lon":-86.75355,"alt":644,"tz":-6,"dst":"A","tzone":"America\/Chicago"},{"faa":"BID","name":"Block Island State Airport","lat":41.168056,"lon":-71.577778,"alt":108,"tz":-5,"dst":"A","tzone":"America\/New_York"},{"faa":"BIF","name":"Biggs Aaf","lat":31.849528,"lon":-106.380039,"alt":3948,"tz":-7,"dst":"A","tzone":"America\/Denver"},{"faa":"BIG","name":"Allen Aaf","lat":63.994547,"lon":-145.721642,"alt":1291,"tz":-9,"dst":"A","tzone":"America\/Anchorage"},{"faa":"BIL","name":"Billings Logan International Airport","lat":45.80921,"lon":-108.537654,"alt":3652,"tz":-7,"dst":"A","tzone":"America\/Denver"},{"faa":"BIS","name":"Bismarck Municipal Airport","lat":46.775842,"lon":-100.757931,"alt":1661,"tz":-6,"dst":"A","tzone":"America\/Chicago"},{"faa":"BIV","name":"Tulip City Airport","lat":42.7427778,"lon":-86.1078333,"alt":698,"tz":-5,"dst":"A","tzone":"America\/New_York"},{"faa":"BIX","name":"Keesler Afb","lat":30.410425,"lon":-88.924433,"alt":33,"tz":-6,"dst":"A","tzone":"America\/Chicago"},{"faa":"BJC","name":"Rocky Mountain Metropolitan Airport","lat":39.90888888,"lon":-105.11722222,"alt":5670,"tz":-7,"dst":"A","tzone":"America\/Denver"},{"faa":"BJI","name":"Bemidji Regional Airport","lat":47.510722,"lon":-94.934722,"alt":1391,"tz":-6,"dst":"A","tzone":"America\/Chicago"},{"faa":"BKC","name":"Buckland Airport","lat":65.981667,"lon":-161.149167,"alt":31,"tz":-9,"dst":"A","tzone":"America\/Anchorage"},{"faa":"BKD","name":"Stephens Co","lat":32.719047,"lon":-98.891,"alt":1284,"tz":-6,"dst":"A","tzone":"America\/Chicago"},{"faa":"BKF","name":"Buckley Afb","lat":39.701668,"lon":-104.75166,"alt":5662,"tz":-7,"dst":"A","tzone":"America\/Denver"},{"faa":"BKG","name":"Branson LLC","lat":36.531994,"lon":-93.200556,"alt":1302,"tz":-6,"dst":"A","tzone":"America\/Chicago"},{"faa":"BKH","name":"Barking Sands Pmrf","lat":22.022833,"lon":-159.785,"alt":23,"tz":-10,"dst":"A","tzone":"Pacific\/Honolulu"},{"faa":"BKL","name":"Burke Lakefront Airport","lat":41.5175,"lon":-81.683333,"alt":583,"tz":-5,"dst":"A","tzone":"America\/New_York"},{"faa":"BKW","name":"Raleigh County Memorial Airport","lat":37.7873,"lon":-81.1242,"alt":2504,"tz":-5,"dst":"A","tzone":"America\/New_York"},{"faa":"BKX","name":"Brookings Regional Airport","lat":44.3048,"lon":-96.8169,"alt":1648,"tz":-6,"dst":"A","tzone":"America\/Chicago"},{"faa":"BLD","name":"Boulder City Municipal Airport","lat":35.5651,"lon":-114.514,"alt":2201,"tz":-7,"dst":"U","tzone":"America\/Phoenix"},{"faa":"BLF","name":"Mercer County Airport","lat":37.2958,"lon":-81.2077,"alt":2857,"tz":-5,"dst":"A","tzone":"America\/New_York"},{"faa":"BLH","name":"Blythe Airport","lat":33.619167,"lon":-114.716889,"alt":399,"tz":-8,"dst":"A","tzone":"America\/Los_Angeles"},{"faa":"BLI","name":"Bellingham Intl","lat":48.792694,"lon":-122.537528,"alt":170,"tz":-8,"dst":"A","tzone":"America\/Los_Angeles"},{"faa":"BLV","name":"Scott Afb Midamerica","lat":38.545178,"lon":-89.835183,"alt":459,"tz":-6,"dst":"A","tzone":"America\/Chicago"},{"faa":"BMC","name":"Brigham City","lat":41.552,"lon":-112.062,"alt":4229,"tz":-7,"dst":"A","tzone":"America\/Denver"},{"faa":"BMG","name":"Monroe County Airport","lat":39.1460208,"lon":-86.6166805,"alt":846,"tz":-5,"dst":"A","tzone":"America\/New_York"},{"faa":"BMI","name":"Central Illinois Rgnl","lat":40.477111,"lon":-88.915917,"alt":871,"tz":-6,"dst":"A","tzone":"America\/Chicago"},{"faa":"BMT","name":"Beaumont Municipal","lat":30.0702044,"lon":-94.2150967,"alt":32,"tz":-6,"dst":"A","tzone":"America\/Chicago"},{"faa":"BMX","name":"Big Mountain Afs","lat":59.361247,"lon":-155.258822,"alt":663,"tz":-9,"dst":"A","tzone":"America\/Anchorage"},{"faa":"BNA","name":"Nashville Intl","lat":36.124472,"lon":-86.678194,"alt":599,"tz":-6,"dst":"A","tzone":"America\/Chicago"},{"faa":"BOI","name":"Boise Air Terminal","lat":43.564361,"lon":-116.222861,"alt":2871,"tz":-7,"dst":"A","tzone":"America\/Denver"},{"faa":"BOS","name":"General Edward Lawrence Logan Intl","lat":42.364347,"lon":-71.005181,"alt":19,"tz":-5,"dst":"A","tzone":"America\/New_York"},{"faa":"BOW","name":"Bartow Municipal Airport","lat":27.9434,"lon":-81.7834,"alt":125,"tz":-5,"dst":"U","tzone":"America\/New_York"},{"faa":"BPT","name":"Southeast Texas Rgnl","lat":29.950833,"lon":-94.020694,"alt":15,"tz":-6,"dst":"A","tzone":"America\/Chicago"},{"faa":"BQK","name":"Brunswick Golden Isles Airport","lat":31.2588,"lon":-81.4665,"alt":26,"tz":-5,"dst":"A","tzone":"America\/New_York"},{"faa":"BRD","name":"Brainerd Lakes Rgnl","lat":46.398308,"lon":-94.138078,"alt":1226,"tz":-6,"dst":"U","tzone":"America\/Chicago"},{"faa":"BRL","name":"Southeast Iowa Regional Airport","lat":40.7832,"lon":-91.1255,"alt":698,"tz":-6,"dst":"A","tzone":"America\/Chicago"},{"faa":"BRO","name":"Brownsville South Padre Island Intl","lat":25.906833,"lon":-97.425861,"alt":22,"tz":-6,"dst":"A","tzone":"America\/Chicago"},{"faa":"BRW","name":"Wiley Post Will Rogers Mem","lat":71.285446,"lon":-156.766003,"alt":44,"tz":-9,"dst":"A","tzone":"America\/Anchorage"},{"faa":"BSF","name":"Bradshaw Aaf","lat":19.760056,"lon":-155.553717,"alt":6190,"tz":-10,"dst":"A","tzone":"Pacific\/Honolulu"},{"faa":"BTI","name":"Barter Island Lrrs","lat":70.133989,"lon":-143.581867,"alt":2,"tz":-9,"dst":"A","tzone":"America\/Anchorage"},{"faa":"BTM","name":"Bert Mooney Airport","lat":45.954806,"lon":-112.497472,"alt":5550,"tz":-7,"dst":"A","tzone":"America\/Denver"},{"faa":"BTR","name":"Baton Rouge Metro Ryan Fld","lat":30.533167,"lon":-91.149639,"alt":70,"tz":-6,"dst":"A","tzone":"America\/Chicago"},{"faa":"BTT","name":"Bettles","lat":66.913944,"lon":-151.529056,"alt":644,"tz":-9,"dst":"A","tzone":"America\/Anchorage"},{"faa":"BTV","name":"Burlington Intl","lat":44.471861,"lon":-73.153278,"alt":335,"tz":-5,"dst":"A","tzone":"America\/New_York"},{"faa":"BUF","name":"Buffalo Niagara Intl","lat":42.940525,"lon":-78.732167,"alt":724,"tz":-5,"dst":"A","tzone":"America\/New_York"},{"faa":"BUR","name":"Bob Hope","lat":34.200667,"lon":-118.358667,"alt":778,"tz":-8,"dst":"A","tzone":"America\/Los_Angeles"},{"faa":"BUU","name":"Municipal Airport","lat":42.6907171,"lon":-88.3046825,"alt":780,"tz":-6,"dst":"A","tzone":"America\/Chicago"},{"faa":"BUY","name":"Burlington-Alamance Regional Airport","lat":36.0485433,"lon":-79.4748892,"alt":617,"tz":-5,"dst":"A","tzone":"America\/New_York"},{"faa":"BVY","name":"Beverly Municipal Airport","lat":42.584141,"lon":-70.9161444,"alt":107,"tz":-5,"dst":"A","tzone":"America\/New_York"},{"faa":"BWD","name":"KBWD","lat":31.7936111,"lon":-98.9565,"alt":1387,"tz":-6,"dst":"A","tzone":"America\/Chicago"},{"faa":"BWG","name":"Bowling Green-Warren County Regional Airport","lat":36.9645278,"lon":-86.4196667,"alt":547,"tz":-6,"dst":"A","tzone":"America\/Chicago"},{"faa":"BWI","name":"Baltimore Washington Intl","lat":39.175361,"lon":-76.668333,"alt":146,"tz":-5,"dst":"A","tzone":"America\/New_York"},{"faa":"BXK","name":"Buckeye Municipal Airport","lat":33.420417,"lon":-112.68618,"alt":1033,"tz":-7,"dst":"U","tzone":"America\/Phoenix"},{"faa":"BXS","name":"Borrego Valley Airport","lat":33.2590278,"lon":-116.3209722,"alt":520,"tz":-8,"dst":"A","tzone":"America\/Los_Angeles"},{"faa":"BYH","name":"Arkansas Intl","lat":35.964347,"lon":-89.943956,"alt":254,"tz":-6,"dst":"A","tzone":"America\/Chicago"},{"faa":"BYS","name":"Bicycle Lake Aaf","lat":35.280531,"lon":-116.630031,"alt":2350,"tz":-8,"dst":"A","tzone":"America\/Los_Angeles"},{"faa":"BYW","name":"Blakely Island Airport","lat":48.56025,"lon":-122.80243,"alt":0,"tz":-8,"dst":"A","tzone":"America\/Los_Angeles"},{"faa":"BZN","name":"Gallatin Field","lat":45.777643,"lon":-111.160151,"alt":4500,"tz":-7,"dst":"A","tzone":"America\/Denver"},{"faa":"C02","name":"Grand Geneva Resort Airport","lat":42.6149167,"lon":-88.3895833,"alt":835,"tz":-6,"dst":"U","tzone":"America\/Chicago"},{"faa":"C16","name":"Frasca Field","lat":40.144979,"lon":-88.200197,"alt":735,"tz":-6,"dst":"A","tzone":"America\/Chicago"},{"faa":"C47","name":"Portage Municipal Airport","lat":43.5603136,"lon":-89.4828607,"alt":825,"tz":-6,"dst":"U","tzone":"America\/Chicago"},{"faa":"C65","name":"Plymouth Municipal Airport","lat":41.3651307,"lon":-86.3002574,"alt":800,"tz":-5,"dst":"A","tzone":"America\/New_York"},{"faa":"C89","name":"Sylvania Airport","lat":42.70325,"lon":-87.9589722,"alt":785,"tz":-6,"dst":"A","tzone":"America\/Chicago"},{"faa":"C91","name":"Dowagiac Municipal Airport","lat":41.9929342,"lon":-86.1280125,"alt":748,"tz":-5,"dst":"U","tzone":"America\/New_York"},{"faa":"CAE","name":"Columbia Metropolitan","lat":33.938833,"lon":-81.119528,"alt":236,"tz":-5,"dst":"A","tzone":"America\/New_York"},{"faa":"CAK","name":"Akron Canton Regional Airport","lat":40.9160833,"lon":-81.4421944,"alt":1228,"tz":-5,"dst":"A","tzone":"America\/New_York"},{"faa":"CAR","name":"Caribou Muni","lat":46.8715,"lon":-68.017917,"alt":626,"tz":-5,"dst":"A","tzone":"America\/New_York"},{"faa":"CBE","name":"Greater Cumberland Rgnl.","lat":39.615278,"lon":-78.760556,"alt":775,"tz":-5,"dst":"A","tzone":"America\/New_York"},{"faa":"CBM","name":"Columbus Afb","lat":33.643833,"lon":-88.443833,"alt":219,"tz":-6,"dst":"A","tzone":"America\/Chicago"},{"faa":"CCO","name":"Coweta County Airport","lat":33.3115656,"lon":-84.7697554,"alt":970,"tz":-5,"dst":"A","tzone":"America\/New_York"},{"faa":"CCR","name":"Buchanan Field Airport","lat":37.9896667,"lon":-122.0568889,"alt":26,"tz":-8,"dst":"A","tzone":"America\/Los_Angeles"},{"faa":"CDB","name":"Cold Bay","lat":55.206061,"lon":-162.725436,"alt":96,"tz":-9,"dst":"A","tzone":"America\/Anchorage"},{"faa":"CDC","name":"Cedar City Rgnl","lat":37.700967,"lon":-113.098847,"alt":5622,"tz":-7,"dst":"A","tzone":"America\/Denver"},{"faa":"CDI","name":"Cambridge Municipal Airport","lat":39.9750278,"lon":-81.5775833,"alt":799,"tz":-5,"dst":"U","tzone":"America\/New_York"},{"faa":"CDK","name":"CedarKey","lat":29.1342222,"lon":-83.0504722,"alt":11,"tz":-5,"dst":"A","tzone":"America\/New_York"},{"faa":"CDN","name":"Woodward Field","lat":34.2835833,"lon":-80.5648611,"alt":302,"tz":-5,"dst":"A","tzone":"America\/New_York"},{"faa":"CDR","name":"Chadron Municipal Airport","lat":42.8375,"lon":-103.095556,"alt":3297,"tz":-7,"dst":"A","tzone":"America\/Denver"},{"faa":"CDS","name":"Childress Muni","lat":34.433781,"lon":-100.287992,"alt":1954,"tz":-6,"dst":"A","tzone":"America\/Chicago"},{"faa":"CDV","name":"Merle K Mudhole Smith","lat":60.491778,"lon":-145.477556,"alt":48,"tz":-9,"dst":"A","tzone":"America\/Anchorage"},{"faa":"CDW","name":"Caldwell Essex County Airport","lat":40.8752222,"lon":-74.2813611,"alt":172,"tz":-5,"dst":"A","tzone":"America\/New_York"},{"faa":"CEC","name":"Del Norte County Airport","lat":41.7802,"lon":-124.237,"alt":57,"tz":-8,"dst":"A","tzone":"America\/Los_Angeles"},{"faa":"CEF","name":"Westover Arb Metropolitan","lat":42.194014,"lon":-72.534783,"alt":241,"tz":-5,"dst":"A","tzone":"America\/New_York"},{"faa":"CEM","name":"Central Airport","lat":65.573889,"lon":-144.780833,"alt":937,"tz":-9,"dst":"A","tzone":"America\/Anchorage"},{"faa":"CEU","name":"Clemson","lat":34.6722222,"lon":-82.8858889,"alt":891,"tz":-5,"dst":"A","tzone":"America\/New_York"},{"faa":"CEW","name":"Bob Sikes","lat":30.778833,"lon":-86.522111,"alt":213,"tz":-6,"dst":"A","tzone":"America\/Chicago"},{"faa":"CEZ","name":"Cortez Muni","lat":37.303,"lon":-108.628056,"alt":5918,"tz":-7,"dst":"A","tzone":"America\/Denver"},{"faa":"CFD","name":"Coulter Fld","lat":30.715694,"lon":-96.331361,"alt":367,"tz":-6,"dst":"A","tzone":"America\/Chicago"},{"faa":"CGA","name":"Craig Seaplane Base","lat":55.478889,"lon":-133.147778,"alt":0,"tz":-9,"dst":"A","tzone":"America\/Anchorage"},{"faa":"CGC","name":"Crystal River","lat":28.8676111,"lon":-82.5741111,"alt":9,"tz":-5,"dst":"A","tzone":"America\/New_York"},{"faa":"CGF","name":"Cuyahoga County","lat":41.565124,"lon":-81.4863555,"alt":879,"tz":-5,"dst":"A","tzone":"America\/New_York"},{"faa":"CGI","name":"Cape Girardeau Regional Airport","lat":37.2253,"lon":-89.5708,"alt":342,"tz":-6,"dst":"A","tzone":"America\/Chicago"},{"faa":"CGX","name":"Meigs Field","lat":41.860278,"lon":-87.609722,"alt":585,"tz":-6,"dst":"A","tzone":"America\/Chicago"},{"faa":"CGZ","name":"Casa Grande Municipal Airport","lat":32.954889,"lon":-111.766832,"alt":1464,"tz":-7,"dst":"U","tzone":"America\/Phoenix"},{"faa":"CHA","name":"Lovell Fld","lat":35.035278,"lon":-85.203808,"alt":683,"tz":-5,"dst":"A","tzone":"America\/New_York"},{"faa":"CHI","name":"All Airports","lat":41.883611,"lon":-87.631667,"alt":596,"tz":-6,"dst":"A","tzone":"America\/Chicago"},{"faa":"CHO","name":"Charlottesville-Albemarle","lat":38.138639,"lon":-78.452861,"alt":639,"tz":-5,"dst":"A","tzone":"America\/New_York"},{"faa":"CHS","name":"Charleston Afb Intl","lat":32.898647,"lon":-80.040528,"alt":45,"tz":-5,"dst":"A","tzone":"America\/New_York"},{"faa":"CHU","name":"Chuathbaluk Airport","lat":61.579167,"lon":-159.215556,"alt":243,"tz":-9,"dst":"A","tzone":"America\/Anchorage"},{"faa":"CIC","name":"Chico Muni","lat":39.795383,"lon":-121.858422,"alt":238,"tz":-8,"dst":"A","tzone":"America\/Los_Angeles"},{"faa":"CID","name":"Cedar Rapids","lat":41.884694,"lon":-91.710806,"alt":869,"tz":-6,"dst":"A","tzone":"America\/Chicago"},{"faa":"CIK","name":"Chalkyitsik Airport","lat":66.645,"lon":-143.74,"alt":544,"tz":-9,"dst":"A","tzone":"America\/Anchorage"},{"faa":"CIL","name":"Council Airport","lat":64.897778,"lon":-163.703333,"alt":85,"tz":-9,"dst":"A","tzone":"America\/Anchorage"},{"faa":"CIU","name":"Chippewa County International Airport","lat":46.2508,"lon":-84.4724,"alt":800,"tz":-5,"dst":"A","tzone":"America\/New_York"},{"faa":"CKB","name":"Harrison Marion Regional Airport","lat":39.2966,"lon":-80.2281,"alt":1217,"tz":-5,"dst":"A","tzone":"America\/New_York"},{"faa":"CKD","name":"Crooked Creek Airport","lat":61.867778,"lon":-158.135,"alt":178,"tz":-9,"dst":"A","tzone":"America\/Anchorage"},{"faa":"CKF","name":"Crisp County Cordele Airport","lat":31.9888333,"lon":-83.7739167,"alt":310,"tz":-5,"dst":"A","tzone":"America\/New_York"},{"faa":"CKV","name":"Clarksville-Montgomery County Regional Airport","lat":36.621944,"lon":-87.415,"alt":550,"tz":-6,"dst":"A","tzone":"America\/Chicago"},{"faa":"CLC","name":"Clear Lake Metroport","lat":29.5569,"lon":-95.137497,"alt":35,"tz":-6,"dst":"A","tzone":"America\/Chicago"},{"faa":"CLD","name":"McClellan-Palomar Airport","lat":33.0742,"lon":-117.1648,"alt":328,"tz":-8,"dst":"A","tzone":"America\/Los_Angeles"},{"faa":"CLE","name":"Cleveland Hopkins Intl","lat":41.411689,"lon":-81.849794,"alt":791,"tz":-5,"dst":"A","tzone":"America\/New_York"},{"faa":"CLL","name":"Easterwood Fld","lat":30.588583,"lon":-96.363833,"alt":321,"tz":-6,"dst":"A","tzone":"America\/Chicago"},{"faa":"CLM","name":"William R Fairchild International Airport","lat":48.1202,"lon":-123.5,"alt":291,"tz":-8,"dst":"A","tzone":"America\/Los_Angeles"},{"faa":"CLS","name":"Chehalis-Centralia","lat":46.4062,"lon":-122.5897,"alt":177,"tz":-8,"dst":"A","tzone":"America\/Los_Angeles"},{"faa":"CLT","name":"Charlotte Douglas Intl","lat":35.214,"lon":-80.943139,"alt":748,"tz":-5,"dst":"A","tzone":"America\/New_York"},{"faa":"CLW","name":"Clearwater Air Park","lat":27.9764722,"lon":-82.7586667,"alt":70,"tz":-5,"dst":"A","tzone":"America\/New_York"},{"faa":"CMH","name":"Port Columbus Intl","lat":39.997972,"lon":-82.891889,"alt":815,"tz":-5,"dst":"A","tzone":"America\/New_York"},{"faa":"CMI","name":"Champaign","lat":40.03925,"lon":-88.278056,"alt":754,"tz":-6,"dst":"A","tzone":"America\/Chicago"},{"faa":"CMX","name":"Houghton County Memorial Airport","lat":47.1684,"lon":-88.4891,"alt":1095,"tz":-5,"dst":"A","tzone":"America\/New_York"},{"faa":"CNM","name":"Cavern City Air Terminal","lat":32.337472,"lon":-104.263278,"alt":3295,"tz":-7,"dst":"A","tzone":"America\/Denver"},{"faa":"CNW","name":"Tstc Waco","lat":31.637831,"lon":-97.074139,"alt":470,"tz":-6,"dst":"A","tzone":"America\/Chicago"},{"faa":"CNY","name":"Canyonlands Field","lat":38.755,"lon":-109.754722,"alt":4555,"tz":-7,"dst":"A","tzone":"America\/Denver"},{"faa":"COD","name":"Yellowstone Rgnl","lat":44.520194,"lon":-109.023806,"alt":5102,"tz":-7,"dst":"A","tzone":"America\/Denver"},{"faa":"COE","name":"Pappy Boyington","lat":47.7743056,"lon":-116.8195833,"alt":2320,"tz":-8,"dst":"A","tzone":"America\/Los_Angeles"},{"faa":"COF","name":"Patrick Afb","lat":28.234922,"lon":-80.610125,"alt":8,"tz":-5,"dst":"A","tzone":"America\/New_York"},{"faa":"COI","name":"Merritt Island Airport","lat":28.3416111,"lon":-80.6854722,"alt":6,"tz":-5,"dst":"A","tzone":"America\/New_York"},{"faa":"CON","name":"Concord Municipal","lat":43.20267,"lon":-71.50233,"alt":342,"tz":-5,"dst":"A","tzone":"America\/New_York"},{"faa":"COS","name":"City Of Colorado Springs Muni","lat":38.805805,"lon":-104.700778,"alt":6187,"tz":-7,"dst":"A","tzone":"America\/Denver"},{"faa":"COT","name":"Cotulla Lasalle Co","lat":28.456694,"lon":-99.220294,"alt":474,"tz":-6,"dst":"A","tzone":"America\/Chicago"},{"faa":"COU","name":"Columbia Rgnl","lat":38.818094,"lon":-92.219631,"alt":889,"tz":-6,"dst":"A","tzone":"America\/Chicago"},{"faa":"CPR","name":"Natrona Co Intl","lat":42.908,"lon":-106.464417,"alt":5347,"tz":-7,"dst":"A","tzone":"America\/Denver"},{"faa":"CPS","name":"St. Louis Downtown Airport","lat":38.5707244,"lon":-90.1562211,"alt":413,"tz":-6,"dst":"U","tzone":"America\/Chicago"},{"faa":"CRE","name":"Grand Strand Airport","lat":33.81175,"lon":-78.7239444,"alt":31,"tz":-5,"dst":"A","tzone":"America\/New_York"},{"faa":"CRP","name":"Corpus Christi Intl","lat":27.770361,"lon":-97.501222,"alt":44,"tz":-6,"dst":"A","tzone":"America\/Chicago"},{"faa":"CRW","name":"Yeager","lat":38.373147,"lon":-81.593189,"alt":981,"tz":-5,"dst":"A","tzone":"America\/New_York"},{"faa":"CSG","name":"Columbus Metropolitan Airport","lat":32.5163333,"lon":-84.9388611,"alt":397,"tz":-5,"dst":"A","tzone":"America\/New_York"},{"faa":"CTB","name":"Cut Bank Muni","lat":48.608353,"lon":-112.376144,"alt":3854,"tz":-7,"dst":"A","tzone":"America\/Denver"},{"faa":"CTH","name":"Chester County G O Carlson Airport","lat":39.9789,"lon":-75.8654,"alt":660,"tz":-5,"dst":"A","tzone":"America\/New_York"},{"faa":"CTJ","name":"West Georgia Regional Airport - O V Gray Field","lat":33.6316964,"lon":-85.1522641,"alt":1165,"tz":-5,"dst":"A","tzone":"America\/New_York"},{"faa":"CTY","name":"Cross City","lat":29.6355278,"lon":-83.10475,"alt":42,"tz":-5,"dst":"A","tzone":"America\/New_York"},{"faa":"CVG","name":"Cincinnati Northern Kentucky Intl","lat":39.048836,"lon":-84.667822,"alt":896,"tz":-5,"dst":"A","tzone":"America\/New_York"},{"faa":"CVN","name":"Clovis Muni","lat":34.425139,"lon":-103.079278,"alt":4216,"tz":-7,"dst":"A","tzone":"America\/Denver"},{"faa":"CVO","name":"Corvallis Muni","lat":44.5067,"lon":-123.2915,"alt":250,"tz":-8,"dst":"A","tzone":"America\/Los_Angeles"},{"faa":"CVS","name":"Cannon Afb","lat":34.382775,"lon":-103.322147,"alt":4295,"tz":-7,"dst":"A","tzone":"America\/Denver"},{"faa":"CVX","name":"Charlevoix Municipal Airport","lat":45.3047778,"lon":-85.2753333,"alt":669,"tz":-5,"dst":"A","tzone":"America\/New_York"},{"faa":"CWA","name":"Central Wisconsin","lat":44.772726,"lon":-89.646635,"alt":840,"tz":-6,"dst":"A","tzone":"America\/Chicago"},{"faa":"CWI","name":"Clinton Municipal","lat":41.83075,"lon":-90.3289722,"alt":708,"tz":-6,"dst":"A","tzone":"America\/Chicago"},{"faa":"CWT","name":"Chatsworth Station","lat":34.256944,"lon":-118.598889,"alt":978,"tz":-8,"dst":"A","tzone":"America\/Los_Angeles"},{"faa":"CXF","name":"Coldfoot Airport","lat":67.251389,"lon":-150.176111,"alt":1014,"tz":-9,"dst":"A","tzone":"America\/Anchorage"},{"faa":"CXL","name":"Calexico Intl","lat":32.669502,"lon":-115.51333,"alt":4,"tz":-8,"dst":"A","tzone":"America\/Los_Angeles"},{"faa":"CXO","name":"Lone Star Executive","lat":30.351833,"lon":-95.414467,"alt":245,"tz":-6,"dst":"A","tzone":"America\/Chicago"},{"faa":"CXY","name":"Capital City Airport","lat":40.2171389,"lon":-76.8513611,"alt":347,"tz":-5,"dst":"A","tzone":"America\/New_York"},{"faa":"CYF","name":"Chefornak Airport","lat":60.149167,"lon":-164.285556,"alt":40,"tz":-9,"dst":"A","tzone":"America\/Anchorage"},{"faa":"CYM","name":"Chatham Seaplane Base","lat":57.515,"lon":-134.946111,"alt":0,"tz":-9,"dst":"A","tzone":"America\/Anchorage"},{"faa":"CYS","name":"Cheyenne Rgnl Jerry Olson Fld","lat":41.155722,"lon":-104.811839,"alt":6156,"tz":-7,"dst":"A","tzone":"America\/Denver"},{"faa":"CYT","name":"Yakataga Airport","lat":60.081901,"lon":-142.493611,"alt":12,"tz":-9,"dst":"A","tzone":"America\/Anchorage"},{"faa":"CZF","name":"Cape Romanzof Lrrs","lat":61.780297,"lon":-166.038747,"alt":457,"tz":-9,"dst":"A","tzone":"America\/Anchorage"},{"faa":"CZG","name":"Tri-Cities","lat":42.0471,"lon":-76.0578,"alt":833,"tz":-5,"dst":"A","tzone":"America\/New_York"},{"faa":"CZN","name":"Chisana Airport","lat":62.071111,"lon":-142.048333,"alt":1011,"tz":-9,"dst":"A","tzone":"America\/Anchorage"},{"faa":"DAB","name":"Daytona Beach Intl","lat":29.179917,"lon":-81.058056,"alt":34,"tz":-5,"dst":"A","tzone":"America\/New_York"},{"faa":"DAL","name":"Dallas Love Fld","lat":32.847111,"lon":-96.851778,"alt":487,"tz":-6,"dst":"A","tzone":"America\/Chicago"},{"faa":"DAW","name":"Skyhaven Airport","lat":43.2840556,"lon":-70.9292778,"alt":321,"tz":-5,"dst":"A","tzone":"America\/New_York"},{"faa":"DAY","name":"James M Cox Dayton Intl","lat":39.902375,"lon":-84.219375,"alt":1009,"tz":-5,"dst":"A","tzone":"America\/New_York"},{"faa":"DBN","name":"W H Barron Field","lat":32.3388,"lon":-82.591,"alt":311,"tz":-5,"dst":"A","tzone":"America\/New_York"},{"faa":"DBQ","name":"Dubuque Rgnl","lat":42.402,"lon":-90.709472,"alt":1076,"tz":-6,"dst":"A","tzone":"America\/Chicago"},{"faa":"DCA","name":"Ronald Reagan Washington Natl","lat":38.852083,"lon":-77.037722,"alt":15,"tz":-5,"dst":"A","tzone":"America\/New_York"},{"faa":"DDC","name":"Dodge City Regional Airport","lat":37.7634,"lon":-99.9656,"alt":2594,"tz":-6,"dst":"A","tzone":"America\/Chicago"},{"faa":"DEC","name":"Decatur","lat":39.834564,"lon":-88.865689,"alt":682,"tz":-6,"dst":"A","tzone":"America\/Chicago"},{"faa":"DEN","name":"Denver Intl","lat":39.861656,"lon":-104.673178,"alt":5431,"tz":-7,"dst":"A","tzone":"America\/Denver"},{"faa":"DET","name":"Coleman A Young Muni","lat":42.409195,"lon":-83.009861,"alt":626,"tz":-5,"dst":"A","tzone":"America\/New_York"},{"faa":"DFW","name":"Dallas Fort Worth Intl","lat":32.896828,"lon":-97.037997,"alt":607,"tz":-6,"dst":"A","tzone":"America\/Chicago"},{"faa":"DGL","name":"Douglas Municipal Airport","lat":31.3426028,"lon":-109.5064544,"alt":4173,"tz":-7,"dst":"N","tzone":"America\/Phoenix"},{"faa":"DHB","name":"Deer Harbor Seaplane","lat":48.618397,"lon":-123.00596,"alt":0,"tz":-8,"dst":"A","tzone":"America\/Los_Angeles"},{"faa":"DHN","name":"Dothan Rgnl","lat":31.321339,"lon":-85.449628,"alt":401,"tz":-6,"dst":"A","tzone":"America\/Chicago"},{"faa":"DHT","name":"Dalhart Muni","lat":36.022586,"lon":-102.547278,"alt":3991,"tz":-6,"dst":"A","tzone":"America\/Chicago"},{"faa":"DIK","name":"Dickinson Theodore Roosevelt Regional Airport","lat":46.7975,"lon":-102.801944,"alt":2592,"tz":-7,"dst":"A","tzone":"America\/Denver"},{"faa":"DKB","name":"De Kalb Taylor Municipal Airport","lat":41.9338342,"lon":-88.7056864,"alt":914,"tz":-6,"dst":"U","tzone":"America\/Chicago"},{"faa":"DKK","name":"Chautauqua County-Dunkirk Airport","lat":42.4933353,"lon":-79.2720417,"alt":693,"tz":-5,"dst":"A","tzone":"America\/New_York"},{"faa":"DKX","name":"Knoxville Downtown Island Airport","lat":35.9638333,"lon":-83.8736667,"alt":833,"tz":-5,"dst":"A","tzone":"America\/New_York"},{"faa":"DLF","name":"Laughlin Afb","lat":29.359486,"lon":-100.777975,"alt":1082,"tz":-6,"dst":"A","tzone":"America\/Chicago"},{"faa":"DLG","name":"Dillingham","lat":59.044667,"lon":-158.5055,"alt":74,"tz":-9,"dst":"A","tzone":"America\/Anchorage"},{"faa":"DLH","name":"Duluth Intl","lat":46.842091,"lon":-92.193649,"alt":1428,"tz":-6,"dst":"A","tzone":"America\/Chicago"},{"faa":"DLL","name":"Baraboo Wisconsin Dells Airport","lat":43.5217843,"lon":-89.7709266,"alt":979,"tz":-6,"dst":"A","tzone":"America\/Chicago"},{"faa":"DMA","name":"Davis Monthan Afb","lat":32.166467,"lon":-110.883144,"alt":2704,"tz":-7,"dst":"A","tzone":"America\/Phoenix"},{"faa":"DNL","name":"Daniel Field Airport","lat":33.4665028,"lon":-82.0393808,"alt":423,"tz":-5,"dst":"A","tzone":"America\/New_York"},{"faa":"DNN","name":"Dalton Municipal Airport","lat":34.7229444,"lon":-84.87025,"alt":709,"tz":-5,"dst":"A","tzone":"America\/New_York"},{"faa":"DNV","name":"Vermilion Regional","lat":40.1996944,"lon":-87.5955278,"alt":696,"tz":-6,"dst":"A","tzone":"America\/Chicago"},{"faa":"DOV","name":"Dover Afb","lat":39.129539,"lon":-75.465958,"alt":28,"tz":-5,"dst":"A","tzone":"America\/New_York"},{"faa":"DPA","name":"Dupage","lat":41.907778,"lon":-88.248611,"alt":758,"tz":-6,"dst":"A","tzone":"America\/Chicago"},{"faa":"DQH","name":"Douglas Municipal Airport","lat":31.4767385,"lon":-82.8605664,"alt":257,"tz":-5,"dst":"A","tzone":"America\/New_York"},{"faa":"DRG","name":"Deering Airport","lat":66.0696,"lon":-162.766,"alt":21,"tz":-9,"dst":"A","tzone":"America\/Anchorage"},{"faa":"DRI","name":"Beauregard Rgnl","lat":30.831722,"lon":-93.339917,"alt":202,"tz":-6,"dst":"A","tzone":"America\/Chicago"},{"faa":"DRM","name":"Drummond Island Airport","lat":46.0093114,"lon":-83.7439342,"alt":668,"tz":-5,"dst":"A","tzone":"America\/New_York"},{"faa":"DRO","name":"Durango La Plata Co","lat":37.151516,"lon":-107.75377,"alt":6685,"tz":-7,"dst":"A","tzone":"America\/Denver"},{"faa":"DRT","name":"Del Rio Intl","lat":29.374208,"lon":-100.927158,"alt":1002,"tz":-6,"dst":"A","tzone":"America\/Chicago"},{"faa":"DSM","name":"Des Moines Intl","lat":41.533972,"lon":-93.663083,"alt":958,"tz":-6,"dst":"A","tzone":"America\/Chicago"},{"faa":"DTA","name":"Delta Municipal Airport","lat":39.3806386,"lon":-112.5077147,"alt":4759,"tz":-7,"dst":"A","tzone":"America\/Denver"},{"faa":"DTS","name":"Destin","lat":30.4000611,"lon":-86.4714772,"alt":23,"tz":-6,"dst":"A","tzone":"America\/Chicago"},{"faa":"DTW","name":"Detroit Metro Wayne Co","lat":42.212444,"lon":-83.353389,"alt":645,"tz":-5,"dst":"A","tzone":"America\/New_York"},{"faa":"DUC","name":"Halliburton Field Airport","lat":34.4713056,"lon":-97.9598611,"alt":1114,"tz":-6,"dst":"A","tzone":"America\/Chicago"},{"faa":"DUG","name":"Bisbee Douglas Intl","lat":31.469028,"lon":-109.603667,"alt":4154,"tz":-7,"dst":"A","tzone":"America\/Phoenix"},{"faa":"DUJ","name":"DuBois Regional Airport","lat":41.1783,"lon":-78.8987,"alt":1817,"tz":-5,"dst":"A","tzone":"America\/New_York"},{"faa":"DUT","name":"Unalaska","lat":53.900139,"lon":-166.5435,"alt":22,"tz":-9,"dst":"A","tzone":"America\/Anchorage"},{"faa":"DVL","name":"Devils Lake Regional Airport","lat":48.114444,"lon":-98.908611,"alt":1445,"tz":-6,"dst":"A","tzone":"America\/Chicago"},{"faa":"DVT","name":"Deer Valley Municipal Airport","lat":33.4117,"lon":112.457,"alt":1478,"tz":8,"dst":"A","tzone":"Asia\/Chongqing"},{"faa":"DWA","name":"Yolo County Airport","lat":38.5793889,"lon":-121.8569444,"alt":100,"tz":-8,"dst":"A","tzone":"America\/Los_Angeles"},{"faa":"DWH","name":"David Wayne Hooks Field","lat":30.063746,"lon":-95.554276,"alt":152,"tz":-6,"dst":"A","tzone":"America\/Chicago"},{"faa":"DWS","name":"Orlando","lat":28.398,"lon":-81.57,"alt":340,"tz":-5,"dst":"A","tzone":"America\/New_York"},{"faa":"DXR","name":"Danbury Municipal Airport","lat":41.3715353,"lon":-73.4821906,"alt":458,"tz":-5,"dst":"A","tzone":"America\/New_York"},{"faa":"DYS","name":"Dyess Afb","lat":32.420756,"lon":-99.8546,"alt":1789,"tz":-6,"dst":"A","tzone":"America\/Chicago"},{"faa":"E25","name":"Wickenburg Municipal Airport","lat":33.96889877,"lon":-112.7990036,"alt":2377,"tz":-7,"dst":"A","tzone":"America\/Phoenix"},{"faa":"E51","name":"Bagdad Airport","lat":34.5958528,"lon":-113.170195,"alt":4183,"tz":-7,"dst":"A","tzone":"America\/Phoenix"},{"faa":"E55","name":"Ocean Ridge Airport","lat":38.8016111,"lon":-123.5306389,"alt":940,"tz":-8,"dst":"A","tzone":"America\/Los_Angeles"},{"faa":"E63","name":"Gila Bend Municipal Airport","lat":32.960169,"lon":-112.673636,"alt":789,"tz":-7,"dst":"U","tzone":"America\/Phoenix"},{"faa":"E91","name":"Chinle Municipal Airport","lat":36.1108806,"lon":-109.5754222,"alt":5547,"tz":-7,"dst":"N","tzone":"America\/Denver"},{"faa":"EAA","name":"Eagle Airport","lat":64.778056,"lon":-141.149722,"alt":908,"tz":-9,"dst":"A","tzone":"America\/Anchorage"},{"faa":"EAR","name":"Kearney Municipal Airport","lat":40.727,"lon":-99.0068,"alt":2131,"tz":-6,"dst":"A","tzone":"America\/Chicago"},{"faa":"EAT","name":"Pangborn Field","lat":47.398,"lon":-120.206,"alt":1249,"tz":-8,"dst":"A","tzone":"America\/Los_Angeles"},{"faa":"EAU","name":"Chippewa Valley Regional Airport","lat":44.8658,"lon":-91.4843,"alt":913,"tz":-6,"dst":"A","tzone":"America\/Chicago"},{"faa":"ECA","name":"Iosco County","lat":44.311,"lon":-83.422,"alt":606,"tz":-5,"dst":"A","tzone":"America\/New_York"},{"faa":"ECG","name":"Elizabeth City Cgas Rgnl","lat":36.260581,"lon":-76.174572,"alt":12,"tz":-5,"dst":"A","tzone":"America\/New_York"},{"faa":"ECP","name":"Panama City-NW Florida Bea.","lat":30.3417,"lon":-85.7973,"alt":69,"tz":-6,"dst":"A","tzone":"America\/Chicago"},{"faa":"EDF","name":"Elmendorf Afb","lat":61.250986,"lon":-149.806503,"alt":212,"tz":-9,"dst":"A","tzone":"America\/Anchorage"},{"faa":"EDW","name":"Edwards Afb","lat":34.905417,"lon":-117.883739,"alt":2302,"tz":-8,"dst":"A","tzone":"America\/Los_Angeles"},{"faa":"EEK","name":"Eek Airport","lat":60.213611,"lon":-162.043889,"alt":15,"tz":-9,"dst":"A","tzone":"America\/Anchorage"},{"faa":"EEN","name":"Dillant Hopkins Airport","lat":72.270833,"lon":42.898333,"alt":149,"tz":-5,"dst":"A","tzone":null},{"faa":"EET","name":"Shelby County Airport","lat":33.1777778,"lon":-86.7832222,"alt":586,"tz":-6,"dst":"A","tzone":"America\/Chicago"},{"faa":"EFD","name":"Ellington Fld","lat":29.607333,"lon":-95.15875,"alt":32,"tz":-6,"dst":"A","tzone":"America\/Chicago"},{"faa":"EGA","name":"Eagle County Airport","lat":39.6427611,"lon":-106.9159347,"alt":6548,"tz":-7,"dst":"U","tzone":"America\/Denver"},{"faa":"EGE","name":"Eagle Co Rgnl","lat":39.642556,"lon":-106.917694,"alt":6540,"tz":-7,"dst":"A","tzone":"America\/Denver"},{"faa":"EGT","name":"Wellington Municipal","lat":37.39411,"lon":-97.423225,"alt":1277,"tz":-6,"dst":"A","tzone":"America\/Chicago"},{"faa":"EGV","name":"Eagle River","lat":45.932333,"lon":-89.268283,"alt":1642,"tz":-6,"dst":"A","tzone":"America\/Chicago"},{"faa":"EGX","name":"Egegik Airport","lat":58.185556,"lon":-157.375556,"alt":92,"tz":-9,"dst":"A","tzone":"America\/Anchorage"},{"faa":"EHM","name":"Cape Newenham Lrrs","lat":58.646428,"lon":-162.062778,"alt":541,"tz":-9,"dst":"A","tzone":"America\/Anchorage"},{"faa":"EIL","name":"Eielson Afb","lat":64.665667,"lon":-147.1015,"alt":548,"tz":-9,"dst":"A","tzone":"America\/Anchorage"},{"faa":"EKI","name":"Elkhart Municipal","lat":41.719444,"lon":-86.003333,"alt":778,"tz":-5,"dst":"A","tzone":"America\/New_York"},{"faa":"EKN","name":"Elkins Randolph Co Jennings Randolph","lat":38.889444,"lon":-79.857139,"alt":1987,"tz":-5,"dst":"A","tzone":"America\/New_York"},{"faa":"EKO","name":"Elko Regional Airport","lat":40.8249,"lon":-115.792,"alt":5140,"tz":-8,"dst":"A","tzone":"America\/Los_Angeles"},{"faa":"EKY","name":"Bessemer","lat":33.1876,"lon":-86.5558,"alt":700,"tz":-6,"dst":"A","tzone":"America\/Chicago"},{"faa":"ELD","name":"South Arkansas Rgnl At Goodwin Fld","lat":33.220972,"lon":-92.813278,"alt":277,"tz":-6,"dst":"A","tzone":"America\/Chicago"},{"faa":"ELI","name":"Elim Airport","lat":64.615,"lon":-162.270556,"alt":162,"tz":-9,"dst":"A","tzone":"America\/Anchorage"},{"faa":"ELM","name":"Elmira Corning Rgnl","lat":42.159889,"lon":-76.891611,"alt":954,"tz":-5,"dst":"A","tzone":"America\/New_York"},{"faa":"ELP","name":"El Paso Intl","lat":31.80725,"lon":-106.377583,"alt":3958,"tz":-7,"dst":"A","tzone":"America\/Denver"},{"faa":"ELV","name":"Elfin Cove Seaplane Base","lat":58.195278,"lon":-136.3475,"alt":0,"tz":-9,"dst":"A","tzone":"America\/Anchorage"},{"faa":"ELY","name":"Ely Airport","lat":39.299722,"lon":-114.841944,"alt":6259,"tz":-8,"dst":"A","tzone":"America\/Los_Angeles"},{"faa":"EMK","name":"Emmonak Airport","lat":62.786111,"lon":-164.490833,"alt":13,"tz":-9,"dst":"A","tzone":"America\/Anchorage"},{"faa":"EMP","name":"Emporia Municipal Airport","lat":38.3321,"lon":-96.1912,"alt":1208,"tz":-6,"dst":"A","tzone":"America\/Chicago"},{"faa":"ENA","name":"Kenai Muni","lat":60.573111,"lon":-151.245,"alt":99,"tz":-9,"dst":"A","tzone":"America\/Anchorage"},{"faa":"END","name":"Vance Afb","lat":36.339167,"lon":-97.9165,"alt":1307,"tz":-6,"dst":"A","tzone":"America\/Chicago"},{"faa":"ENV","name":"Wendover","lat":40.718694,"lon":-114.030889,"alt":4237,"tz":-7,"dst":"A","tzone":"America\/Denver"},{"faa":"ENW","name":"Kenosha Regional Airport","lat":42.5956944,"lon":-87.9278056,"alt":742,"tz":-6,"dst":"A","tzone":"America\/Chicago"},{"faa":"EOK","name":"Keokuk Municipal Airport","lat":40.4599078,"lon":-91.4285011,"alt":671,"tz":-6,"dst":"A","tzone":"America\/Chicago"},{"faa":"EPM","name":"Eastport Municipal Airport","lat":44.9101111,"lon":-67.0126944,"alt":45,"tz":-5,"dst":"A","tzone":"America\/New_York"},{"faa":"EQY","name":"Monroe Reqional Airport","lat":35.01833,"lon":-80.62001,"alt":679,"tz":-5,"dst":"A","tzone":"America\/New_York"},{"faa":"ERI","name":"Erie Intl Tom Ridge Fld","lat":42.082022,"lon":-80.176217,"alt":733,"tz":-5,"dst":"A","tzone":"America\/New_York"},{"faa":"ERV","name":"Kerrville Municipal Airport","lat":29.9766667,"lon":-99.0854722,"alt":1617,"tz":-6,"dst":"A","tzone":"America\/Chicago"},{"faa":"ERY","name":"Luce County Airport","lat":46.311199,"lon":-85.457298,"alt":869,"tz":-5,"dst":"A","tzone":"America\/New_York"},{"faa":"ESC","name":"Delta County Airport","lat":45.722778,"lon":-87.093611,"alt":609,"tz":-5,"dst":"A","tzone":"America\/New_York"},{"faa":"ESD","name":"Orcas Island Airport","lat":48.708056,"lon":-122.910556,"alt":31,"tz":-8,"dst":"A","tzone":"America\/Los_Angeles"},{"faa":"ESF","name":"Esler Rgnl","lat":31.394903,"lon":-92.295772,"alt":112,"tz":-6,"dst":"A","tzone":"America\/Chicago"},{"faa":"ESN","name":"Easton-Newnam Field Airport","lat":38.8041667,"lon":-76.069,"alt":72,"tz":-5,"dst":"A","tzone":"America\/New_York"},{"faa":"EUF","name":"Weedon Field","lat":31.5708,"lon":-85.0774,"alt":285,"tz":-6,"dst":"A","tzone":"America\/Chicago"},{"faa":"EUG","name":"Mahlon Sweet Fld","lat":44.124583,"lon":-123.211972,"alt":374,"tz":-8,"dst":"A","tzone":"America\/Los_Angeles"},{"faa":"EVV","name":"Evansville Regional","lat":38.036997,"lon":-87.532364,"alt":418,"tz":-6,"dst":"A","tzone":"America\/Chicago"},{"faa":"EVW","name":"Evanston-Uinta CO Burns Fld","lat":41.1649,"lon":-111.0208,"alt":7143,"tz":-7,"dst":"A","tzone":"America\/Denver"},{"faa":"EWB","name":"New Bedford Regional Airport","lat":41.6761,"lon":-70.9569,"alt":80,"tz":-5,"dst":"A","tzone":"America\/New_York"},{"faa":"EWK","name":"Newton City-County Airport","lat":38.0570785,"lon":-97.2752278,"alt":1533,"tz":-6,"dst":"A","tzone":"America\/Chicago"},{"faa":"EWN","name":"Craven Co Rgnl","lat":35.072972,"lon":-77.042944,"alt":18,"tz":-5,"dst":"A","tzone":"America\/New_York"},{"faa":"EWR","name":"Newark Liberty Intl","lat":40.6925,"lon":-74.168667,"alt":18,"tz":-5,"dst":"A","tzone":"America\/New_York"},{"faa":"EXI","name":"Excursion Inlet Seaplane Base","lat":58.420556,"lon":-135.449167,"alt":0,"tz":-9,"dst":"A","tzone":"America\/Anchorage"},{"faa":"EYW","name":"Key West Intl","lat":24.556111,"lon":-81.759556,"alt":3,"tz":-5,"dst":"A","tzone":"America\/New_York"},{"faa":"F57","name":"Seaplane Base","lat":28.0575,"lon":-81.7628056,"alt":140,"tz":-5,"dst":"A","tzone":"America\/New_York"},{"faa":"FAF","name":"Felker Aaf","lat":37.1325,"lon":-76.608841,"alt":12,"tz":-5,"dst":"A","tzone":"America\/New_York"},{"faa":"FAI","name":"Fairbanks Intl","lat":64.815114,"lon":-147.856267,"alt":434,"tz":-9,"dst":"A","tzone":"America\/Anchorage"},{"faa":"FAR","name":"Hector International Airport","lat":46.92065,"lon":-96.8157639,"alt":902,"tz":-6,"dst":"A","tzone":"America\/Chicago"},{"faa":"FAT","name":"Fresno Yosemite Intl","lat":36.776194,"lon":-119.71814,"alt":336,"tz":-8,"dst":"A","tzone":"America\/Los_Angeles"},{"faa":"FAY","name":"Fayetteville Regional Grannis Field","lat":34.9912,"lon":-78.8803,"alt":189,"tz":-5,"dst":"A","tzone":"America\/New_York"},{"faa":"FBG","name":"Fredericksburg Amtrak Station","lat":38.298416,"lon":-77.456875,"alt":130,"tz":-5,"dst":"A","tzone":"America\/New_York"},{"faa":"FBK","name":"Ladd Aaf","lat":64.8375,"lon":-147.614444,"alt":454,"tz":-9,"dst":"A","tzone":"America\/Anchorage"},{"faa":"FBR","name":"Fort Bridger","lat":41.236,"lon":-110.2436,"alt":7038,"tz":-7,"dst":"A","tzone":"America\/Denver"},{"faa":"FBS","name":"Friday Harbor Seaplane Base","lat":48.537222,"lon":-123.009722,"alt":0,"tz":-8,"dst":"A","tzone":"America\/Los_Angeles"},{"faa":"FCA","name":"Glacier Park Intl","lat":48.310472,"lon":-114.256,"alt":2977,"tz":-7,"dst":"A","tzone":"America\/Denver"},{"faa":"FCM","name":"Flying Cloud Airport","lat":44.4938,"lon":-93.2726,"alt":906,"tz":-6,"dst":"A","tzone":"America\/Chicago"},{"faa":"FCS","name":"Butts Aaf","lat":38.678394,"lon":-104.756581,"alt":5838,"tz":-7,"dst":"A","tzone":"America\/Denver"},{"faa":"FDW","name":"Fairfield County Airport","lat":34.315472,"lon":-81.108806,"alt":577,"tz":-5,"dst":"A","tzone":"America\/New_York"},{"faa":"FDY","name":"Findlay Airport","lat":41.0120278,"lon":-83.6686111,"alt":819,"tz":-5,"dst":"U","tzone":"America\/New_York"},{"faa":"FFA","name":"First Flight Airport","lat":36.02,"lon":-75.67,"alt":13,"tz":-5,"dst":"A","tzone":"America\/New_York"},{"faa":"FFC","name":"Atlanta Regional Airport - Falcon Field","lat":33.35725,"lon":-84.5718333,"alt":808,"tz":-5,"dst":"A","tzone":"America\/New_York"},{"faa":"FFO","name":"Wright Patterson Afb","lat":39.826111,"lon":-84.048332,"alt":823,"tz":-5,"dst":"A","tzone":"America\/New_York"},{"faa":"FFT","name":"Capital City Airport","lat":38.1819722,"lon":-84.9061389,"alt":812,"tz":-5,"dst":"A","tzone":"America\/New_York"},{"faa":"FFZ","name":"Mesa Falcon Field","lat":33.4608001709,"lon":-111.7279968262,"alt":1394,"tz":-7,"dst":"A","tzone":"America\/Phoenix"},{"faa":"FHU","name":"Sierra Vista Muni Libby Aaf","lat":31.588472,"lon":-110.344389,"alt":4719,"tz":-7,"dst":"A","tzone":"America\/Phoenix"},{"faa":"FIT","name":"Fitchburg Municipal Airport","lat":42.5541111,"lon":-71.7589722,"alt":348,"tz":-5,"dst":"A","tzone":"America\/New_York"},{"faa":"FKL","name":"Franklin","lat":41.377874,"lon":-79.860362,"alt":1540,"tz":-5,"dst":"A","tzone":"America\/New_York"},{"faa":"FLD","name":"Fond Du Lac County Airport","lat":43.7711667,"lon":-88.4884167,"alt":808,"tz":-6,"dst":"A","tzone":"America\/Chicago"},{"faa":"FLG","name":"Flagstaff Pulliam Airport","lat":35.140318,"lon":-111.6692392,"alt":7015,"tz":-7,"dst":"N","tzone":"America\/Phoenix"},{"faa":"FLL","name":"Fort Lauderdale Hollywood Intl","lat":26.072583,"lon":-80.15275,"alt":9,"tz":-5,"dst":"A","tzone":"America\/New_York"},{"faa":"FLO","name":"Florence Rgnl","lat":34.185361,"lon":-79.723889,"alt":146,"tz":-5,"dst":"A","tzone":"America\/New_York"},{"faa":"FLV","name":"Sherman Aaf","lat":39.368332,"lon":-94.914686,"alt":772,"tz":-6,"dst":"A","tzone":"America\/Chicago"},{"faa":"FME","name":"Tipton","lat":39.085386,"lon":-76.759414,"alt":150,"tz":-5,"dst":"A","tzone":"America\/New_York"},{"faa":"FMH","name":"Otis Angb","lat":41.658439,"lon":-70.521417,"alt":131,"tz":-5,"dst":"A","tzone":"America\/New_York"},{"faa":"FMN","name":"Four Corners Rgnl","lat":36.74125,"lon":-108.229944,"alt":5506,"tz":-7,"dst":"A","tzone":"America\/Denver"},{"faa":"FMY","name":"Page Fld","lat":26.586611,"lon":-81.86325,"alt":17,"tz":-5,"dst":"A","tzone":"America\/New_York"},{"faa":"FNL","name":"Fort Collins Loveland Muni","lat":40.451828,"lon":-105.011336,"alt":5016,"tz":-7,"dst":"A","tzone":"America\/Denver"},{"faa":"FNR","name":"Funter Bay Seaplane Base","lat":58.254444,"lon":-134.897778,"alt":0,"tz":-9,"dst":"A","tzone":"America\/Anchorage"},{"faa":"FNT","name":"Bishop International","lat":42.965424,"lon":-83.743629,"alt":782,"tz":-5,"dst":"A","tzone":"America\/New_York"},{"faa":"FOD","name":"Fort Dodge Rgnl","lat":42.5512,"lon":-94.191842,"alt":1157,"tz":-6,"dst":"A","tzone":"America\/Chicago"},{"faa":"FOE","name":"Forbes Fld","lat":38.950944,"lon":-95.663611,"alt":1078,"tz":-6,"dst":"A","tzone":"America\/Chicago"},{"faa":"FOK","name":"Francis S Gabreski","lat":40.843656,"lon":-72.631789,"alt":67,"tz":-5,"dst":"A","tzone":"America\/New_York"},{"faa":"FRD","name":"Friday Harbor Airport","lat":48.521944,"lon":-123.024444,"alt":113,"tz":-8,"dst":"A","tzone":"America\/Los_Angeles"},{"faa":"FRI","name":"Marshall Aaf","lat":39.055275,"lon":-96.764453,"alt":1063,"tz":-6,"dst":"A","tzone":"America\/Chicago"},{"faa":"FRN","name":"Bryant Ahp","lat":61.266381,"lon":-149.653119,"alt":378,"tz":-9,"dst":"A","tzone":"America\/Anchorage"},{"faa":"FRP","name":"St Lucie County International Airport","lat":27.497472,"lon":-80.372638,"alt":23,"tz":-5,"dst":"A","tzone":"America\/New_York"},{"faa":"FSD","name":"Sioux Falls","lat":43.582014,"lon":-96.741914,"alt":1429,"tz":-6,"dst":"A","tzone":"America\/Chicago"},{"faa":"FSI","name":"Henry Post Aaf","lat":34.649833,"lon":-98.402167,"alt":1189,"tz":-6,"dst":"A","tzone":"America\/Chicago"},{"faa":"FSM","name":"Fort Smith Rgnl","lat":35.336583,"lon":-94.367444,"alt":469,"tz":-6,"dst":"A","tzone":"America\/Chicago"},{"faa":"FST","name":"Fort Stockton Pecos Co","lat":30.915667,"lon":-102.916139,"alt":3011,"tz":-6,"dst":"A","tzone":"America\/Chicago"},{"faa":"FTK","name":"Godman Aaf","lat":37.907058,"lon":-85.972106,"alt":756,"tz":-5,"dst":"A","tzone":"America\/New_York"},{"faa":"FTW","name":"Fort Worth Meacham Intl","lat":32.819778,"lon":-97.362444,"alt":710,"tz":-6,"dst":"A","tzone":"America\/Chicago"},{"faa":"FTY","name":"Fulton County Airport Brown Field","lat":33.7791,"lon":-84.5214,"alt":841,"tz":-5,"dst":"A","tzone":"America\/New_York"},{"faa":"FUL","name":"Fullerton Municipal Airport","lat":33.521925,"lon":-117.584722,"alt":96,"tz":-8,"dst":"A","tzone":"America\/Los_Angeles"},{"faa":"FWA","name":"Fort Wayne","lat":40.978472,"lon":-85.195139,"alt":815,"tz":-5,"dst":"A","tzone":"America\/New_York"},{"faa":"FXE","name":"Fort Lauderdale Executive","lat":26.197281,"lon":-80.170706,"alt":13,"tz":-5,"dst":"A","tzone":"America\/New_York"},{"faa":"FYU","name":"Fort Yukon","lat":66.571492,"lon":-145.250417,"alt":433,"tz":-9,"dst":"A","tzone":"America\/Anchorage"},{"faa":"FYV","name":"Drake Fld","lat":36.005094,"lon":-94.170059,"alt":1251,"tz":-6,"dst":"A","tzone":"America\/Chicago"},{"faa":"FZG","name":"Fitzgerald Municipal Airport","lat":31.6839046,"lon":-83.2709036,"alt":365,"tz":-5,"dst":"A","tzone":"America\/New_York"},{"faa":"FZI","name":"Fostoria Metropolitan Airport","lat":41.1908333,"lon":-83.3930833,"alt":752,"tz":-5,"dst":"A","tzone":"America\/New_York"},{"faa":"GAD","name":"Northeast Alabama Regional Airport","lat":33.9726489,"lon":-86.0890834,"alt":569,"tz":-6,"dst":"A","tzone":"America\/Chicago"},{"faa":"GAI","name":"Montgomery County Airpark","lat":39.1006,"lon":-77.09576,"alt":0,"tz":-5,"dst":"A","tzone":"America\/New_York"},{"faa":"GAL","name":"Edward G Pitka Sr","lat":64.736178,"lon":-156.937417,"alt":152,"tz":-9,"dst":"A","tzone":"America\/Anchorage"},{"faa":"GAM","name":"Gambell Airport","lat":63.7668,"lon":-171.733,"alt":27,"tz":-9,"dst":"A","tzone":"America\/Anchorage"},{"faa":"GBN","name":"Great Bend Municipal","lat":38.344167,"lon":-98.859167,"alt":1887,"tz":-6,"dst":"A","tzone":"America\/Chicago"},{"faa":"GCC","name":"Gillette-Campbell County Airport","lat":44.3489167,"lon":-105.5393611,"alt":4365,"tz":-7,"dst":"A","tzone":"America\/Denver"},{"faa":"GCK","name":"Garden City Rgnl","lat":37.927528,"lon":-100.724417,"alt":2891,"tz":-6,"dst":"A","tzone":"America\/Chicago"},{"faa":"GCN","name":"Grand Canyon National Park Airport","lat":35.9523611,"lon":-112.1469722,"alt":6609,"tz":-7,"dst":"N","tzone":"America\/Phoenix"},{"faa":"GCW","name":"Grand Canyon West Airport","lat":35.5925,"lon":-113.4859,"alt":4825,"tz":-7,"dst":"U","tzone":"America\/Phoenix"},{"faa":"GDV","name":"Dawson Community Airport","lat":47.138611,"lon":-104.807222,"alt":749,"tz":-7,"dst":"A","tzone":"America\/Denver"},{"faa":"GDW","name":"Gladwin Zettel Memorial Airport","lat":43.9705893,"lon":-84.47502,"alt":774,"tz":-5,"dst":"A","tzone":"America\/New_York"},{"faa":"GED","name":"Sussex Co","lat":38.689194,"lon":-75.358889,"alt":50,"tz":-5,"dst":"A","tzone":"America\/New_York"},{"faa":"GEG","name":"Spokane Intl","lat":47.619861,"lon":-117.533833,"alt":2376,"tz":-8,"dst":"A","tzone":"America\/Los_Angeles"},{"faa":"GEU","name":"Glendale Municipal Airport","lat":33.5269167,"lon":-112.2951389,"alt":1071,"tz":-7,"dst":"N","tzone":"America\/Phoenix"},{"faa":"GFK","name":"Grand Forks Intl","lat":47.949256,"lon":-97.176111,"alt":845,"tz":-6,"dst":"A","tzone":"America\/Chicago"},{"faa":"GFL","name":"Floyd Bennett Memorial Airport","lat":43.341222,"lon":-73.610305,"alt":328,"tz":-5,"dst":"A","tzone":"America\/New_York"},{"faa":"GGE","name":"Georgetown County Airport","lat":33.3114018,"lon":-79.3203139,"alt":40,"tz":-5,"dst":"A","tzone":"America\/New_York"},{"faa":"GGG","name":"East Texas Rgnl","lat":32.384014,"lon":-94.711486,"alt":365,"tz":-6,"dst":"A","tzone":"America\/Chicago"},{"faa":"GGW","name":"Wokal Field Glasgow International Airport","lat":48.2125,"lon":-106.615,"alt":2296,"tz":-7,"dst":"A","tzone":"America\/Denver"},{"faa":"GHG","name":"Marshfield Municipal Airport","lat":42.09825,"lon":-70.6721389,"alt":9,"tz":-5,"dst":"A","tzone":"America\/New_York"},{"faa":"GIF","name":"Gilbert Airport","lat":28.062778,"lon":-81.753333,"alt":145,"tz":-5,"dst":"A","tzone":"America\/New_York"},{"faa":"GJT","name":"Grand Junction Regional","lat":39.122413,"lon":-108.526735,"alt":4858,"tz":-7,"dst":"A","tzone":"America\/Denver"},{"faa":"GKN","name":"Gulkana","lat":62.154888,"lon":-145.456639,"alt":1580,"tz":-9,"dst":"A","tzone":"America\/Anchorage"},{"faa":"GKY","name":"Arlington Municipal","lat":32.6638611,"lon":-97.0942778,"alt":628,"tz":-6,"dst":"A","tzone":"America\/Chicago"},{"faa":"GLD","name":"Renner Fld","lat":39.370621,"lon":-101.698992,"alt":3656,"tz":-7,"dst":"A","tzone":"America\/Denver"},{"faa":"GLH","name":"Mid Delta Regional Airport","lat":33.4829,"lon":-90.9856,"alt":131,"tz":-6,"dst":"A","tzone":"America\/Chicago"},{"faa":"GLS","name":"Scholes Intl At Galveston","lat":29.265322,"lon":-94.860406,"alt":6,"tz":-6,"dst":"A","tzone":"America\/Chicago"},{"faa":"GLV","name":"Golovin Airport","lat":64.550556,"lon":-163.007222,"alt":59,"tz":-9,"dst":"A","tzone":"America\/Anchorage"},{"faa":"GNT","name":"Grants Milan Muni","lat":35.167286,"lon":-107.901989,"alt":6537,"tz":-7,"dst":"A","tzone":"America\/Denver"},{"faa":"GNU","name":"Goodnews Airport","lat":59.1175,"lon":-161.5775,"alt":15,"tz":-9,"dst":"A","tzone":"America\/Anchorage"},{"faa":"GNV","name":"Gainesville Rgnl","lat":29.690056,"lon":-82.271778,"alt":152,"tz":-5,"dst":"A","tzone":"America\/New_York"},{"faa":"GON","name":"Groton New London","lat":41.330056,"lon":-72.045139,"alt":9,"tz":-5,"dst":"A","tzone":"America\/New_York"},{"faa":"GPT","name":"Gulfport-Biloxi","lat":30.407278,"lon":-89.070111,"alt":28,"tz":-6,"dst":"A","tzone":"America\/Chicago"},{"faa":"GPZ","name":"Grand Rapids Itasca County","lat":47.211111,"lon":-93.509722,"alt":413,"tz":-6,"dst":"A","tzone":"America\/Chicago"},{"faa":"GQQ","name":"Galion Municipal Airport","lat":40.7533889,"lon":-82.7238056,"alt":1224,"tz":-5,"dst":"A","tzone":"America\/New_York"},{"faa":"GRB","name":"Austin Straubel Intl","lat":44.485072,"lon":-88.129589,"alt":695,"tz":-6,"dst":"A","tzone":"America\/Chicago"},{"faa":"GRF","name":"Gray Aaf","lat":47.079217,"lon":-122.580783,"alt":302,"tz":-8,"dst":"A","tzone":"America\/Los_Angeles"},{"faa":"GRI","name":"Central Nebraska Regional Airport","lat":40.9675,"lon":-98.3096,"alt":1847,"tz":-6,"dst":"A","tzone":"America\/Chicago"},{"faa":"GRK","name":"Robert Gray Aaf","lat":31.06725,"lon":-97.828917,"alt":1015,"tz":-6,"dst":"A","tzone":"America\/Chicago"},{"faa":"GRM","name":"Grand Marais Cook County Airport","lat":47.8383333,"lon":-90.3829444,"alt":1799,"tz":-6,"dst":"U","tzone":"America\/Chicago"},{"faa":"GRR","name":"Gerald R Ford Intl","lat":42.880833,"lon":-85.522806,"alt":794,"tz":-5,"dst":"A","tzone":"America\/New_York"},{"faa":"GSB","name":"Seymour Johnson Afb","lat":35.339383,"lon":-77.960589,"alt":110,"tz":-5,"dst":"A","tzone":"America\/New_York"},{"faa":"GSO","name":"Piedmont Triad","lat":36.09775,"lon":-79.937306,"alt":925,"tz":-5,"dst":"A","tzone":"America\/New_York"},{"faa":"GSP","name":"Greenville-Spartanburg International","lat":34.895556,"lon":-82.218889,"alt":964,"tz":-5,"dst":"A","tzone":"America\/New_York"},{"faa":"GST","name":"Gustavus Airport","lat":58.4253,"lon":-135.707,"alt":34,"tz":-9,"dst":"A","tzone":"America\/Anchorage"},{"faa":"GTB","name":"Wheeler Sack Aaf","lat":44.055619,"lon":-75.719458,"alt":690,"tz":-5,"dst":"A","tzone":"America\/New_York"},{"faa":"GTF","name":"Great Falls Intl","lat":47.482,"lon":-111.370689,"alt":3677,"tz":-7,"dst":"A","tzone":"America\/Denver"},{"faa":"GTR","name":"Golden Triangle Regional Airport","lat":33.450333,"lon":-88.591361,"alt":264,"tz":-6,"dst":"A","tzone":"America\/Chicago"},{"faa":"GTU","name":"Georgetown Municipal Airport","lat":30.678809,"lon":-97.6793837,"alt":790,"tz":-6,"dst":"A","tzone":"America\/Chicago"},{"faa":"GUC","name":"Gunnison - Crested Butte","lat":38.533889,"lon":-106.933056,"alt":7678,"tz":-7,"dst":"A","tzone":"America\/Denver"},{"faa":"GUP","name":"Gallup Muni","lat":35.511058,"lon":-108.789308,"alt":6472,"tz":-7,"dst":"A","tzone":"America\/Denver"},{"faa":"GUS","name":"Grissom Arb","lat":40.648094,"lon":-86.152119,"alt":812,"tz":-5,"dst":"A","tzone":"America\/New_York"},{"faa":"GVL","name":"Lee Gilmer Memorial Airport","lat":34.272627,"lon":-83.8302233,"alt":1276,"tz":-5,"dst":"A","tzone":"America\/New_York"},{"faa":"GVQ","name":"Genesee County Airport","lat":43.03175,"lon":-78.1696667,"alt":914,"tz":-5,"dst":"A","tzone":"America\/New_York"},{"faa":"GVT","name":"Majors","lat":33.067839,"lon":-96.065333,"alt":535,"tz":-6,"dst":"A","tzone":"America\/Chicago"},{"faa":"GWO","name":"Greenwood Leflore","lat":33.494328,"lon":-90.084706,"alt":162,"tz":-6,"dst":"A","tzone":"America\/Chicago"},{"faa":"GYY","name":"Gary Chicago International Airport","lat":41.6163,"lon":-87.4128,"alt":591,"tz":-6,"dst":"A","tzone":"America\/Chicago"},{"faa":"HBG","name":"Hattiesburg Bobby L. Chain Municipal Airport","lat":31.2649444,"lon":-89.2528889,"alt":151,"tz":-6,"dst":"A","tzone":"America\/Chicago"},{"faa":"HBR","name":"Hobart Muni","lat":34.991308,"lon":-99.051353,"alt":1564,"tz":-6,"dst":"A","tzone":"America\/Chicago"},{"faa":"HCC","name":"Columbia County","lat":42.2913,"lon":-73.7103,"alt":198,"tz":-5,"dst":"A","tzone":"America\/New_York"},{"faa":"HCR","name":"Holy Cross Airport","lat":62.1883,"lon":-159.775,"alt":70,"tz":-9,"dst":"A","tzone":"America\/Anchorage"},{"faa":"HDH","name":"Dillingham","lat":21.579475,"lon":-158.197281,"alt":14,"tz":-10,"dst":"A","tzone":"Pacific\/Honolulu"},{"faa":"HDI","name":"Hardwick Field Airport","lat":35.2199994,"lon":-84.832369,"alt":874,"tz":-5,"dst":"A","tzone":"America\/New_York"},{"faa":"HDN","name":"Yampa Valley","lat":40.481181,"lon":-107.21766,"alt":6602,"tz":-7,"dst":"A","tzone":"America\/Denver"},{"faa":"HDO","name":"Hondo Municipal Airport","lat":29.3591,"lon":-99.1775,"alt":930,"tz":-6,"dst":"A","tzone":"America\/Chicago"},{"faa":"HFD","name":"Hartford Brainard","lat":41.736722,"lon":-72.649444,"alt":18,"tz":-5,"dst":"A","tzone":"America\/New_York"},{"faa":"HGR","name":"Hagerstown Regional Richard A Henson Field","lat":39.7079,"lon":-77.7295,"alt":704,"tz":-5,"dst":"A","tzone":"America\/New_York"},{"faa":"HHH","name":"Hilton Head","lat":32.216,"lon":-80.752,"alt":10,"tz":-5,"dst":"U","tzone":"America\/New_York"},{"faa":"HHI","name":"Wheeler Aaf","lat":21.4835,"lon":-158.039667,"alt":837,"tz":-10,"dst":"A","tzone":"Pacific\/Honolulu"},{"faa":"HHR","name":"Jack Northrop Fld Hawthorne Muni","lat":33.922839,"lon":-118.335186,"alt":66,"tz":-8,"dst":"A","tzone":"America\/Los_Angeles"},{"faa":"HIB","name":"Chisholm Hibbing","lat":47.3866,"lon":-92.838994,"alt":1353,"tz":-6,"dst":"A","tzone":"America\/Chicago"},{"faa":"HIF","name":"Hill Afb","lat":41.123939,"lon":-111.973039,"alt":4789,"tz":-7,"dst":"A","tzone":"America\/Denver"},{"faa":"HII","name":"Lake Havasu City Airport","lat":34.5711111,"lon":-114.3582778,"alt":783,"tz":-7,"dst":"N","tzone":"America\/Phoenix"},{"faa":"HIO","name":"Portland Hillsboro","lat":45.540394,"lon":-122.949825,"alt":204,"tz":-8,"dst":"A","tzone":"America\/Los_Angeles"},{"faa":"HKB","name":"Healy River Airport","lat":63.8675,"lon":-148.968889,"alt":1263,"tz":-9,"dst":"A","tzone":"America\/Anchorage"},{"faa":"HKY","name":"Hickory Rgnl","lat":35.741147,"lon":-81.38955,"alt":1189,"tz":-5,"dst":"A","tzone":"America\/New_York"},{"faa":"HLG","name":"Wheeling Ohio County Airport","lat":40.175,"lon":-80.6463,"alt":1195,"tz":-5,"dst":"A","tzone":"America\/New_York"},{"faa":"HLN","name":"Helena Rgnl","lat":46.606806,"lon":-111.98275,"alt":3877,"tz":-7,"dst":"A","tzone":"America\/Denver"},{"faa":"HLR","name":"Hood Aaf","lat":31.138731,"lon":-97.714469,"alt":924,"tz":-6,"dst":"A","tzone":"America\/Chicago"},{"faa":"HMN","name":"Holloman Afb","lat":32.852519,"lon":-106.106525,"alt":4093,"tz":-7,"dst":"A","tzone":"America\/Denver"},{"faa":"HNH","name":"Hoonah Airport","lat":58.096111,"lon":-135.409722,"alt":19,"tz":-9,"dst":"A","tzone":"America\/Anchorage"},{"faa":"HNL","name":"Honolulu Intl","lat":21.318681,"lon":-157.922428,"alt":13,"tz":-10,"dst":"N","tzone":"Pacific\/Honolulu"},{"faa":"HNM","name":"Hana","lat":20.795636,"lon":-156.014439,"alt":78,"tz":-10,"dst":"A","tzone":"Pacific\/Honolulu"},{"faa":"HNS","name":"Haines Airport","lat":59.2438,"lon":-135.524,"alt":15,"tz":-9,"dst":"A","tzone":"America\/Anchorage"},{"faa":"HOB","name":"Lea Co Rgnl","lat":32.687528,"lon":-103.217028,"alt":3661,"tz":-7,"dst":"A","tzone":"America\/Denver"},{"faa":"HOM","name":"Homer","lat":59.645556,"lon":-151.476583,"alt":84,"tz":-9,"dst":"A","tzone":"America\/Anchorage"},{"faa":"HON","name":"Huron Rgnl","lat":44.3852,"lon":-98.228542,"alt":1289,"tz":-6,"dst":"A","tzone":"America\/Chicago"},{"faa":"HOP","name":"Campbell Aaf","lat":36.668567,"lon":-87.496183,"alt":573,"tz":-6,"dst":"A","tzone":"America\/Chicago"},{"faa":"HOT","name":"Memorial Field","lat":34.478,"lon":-93.0962,"alt":540,"tz":-6,"dst":"A","tzone":"America\/Chicago"},{"faa":"HOU","name":"William P Hobby","lat":29.645419,"lon":-95.278889,"alt":46,"tz":-6,"dst":"A","tzone":"America\/Chicago"},{"faa":"HPB","name":"Hooper Bay Airport","lat":61.5239,"lon":-166.147,"alt":7,"tz":-9,"dst":"A","tzone":"America\/Anchorage"},{"faa":"HPN","name":"Westchester Co","lat":41.066959,"lon":-73.707575,"alt":439,"tz":-5,"dst":"A","tzone":"America\/New_York"},{"faa":"HQM","name":"Bowerman Field","lat":46.9711944,"lon":-123.9365556,"alt":18,"tz":-8,"dst":"A","tzone":"America\/Los_Angeles"},{"faa":"HQU","name":"McDuffie County Airport","lat":33.5297315,"lon":-82.5169509,"alt":501,"tz":-5,"dst":"A","tzone":"America\/New_York"},{"faa":"HRL","name":"Valley Intl","lat":26.2285,"lon":-97.654389,"alt":36,"tz":-6,"dst":"A","tzone":"America\/Chicago"},{"faa":"HRO","name":"Boone Co","lat":36.261519,"lon":-93.154728,"alt":1365,"tz":-6,"dst":"A","tzone":"America\/Chicago"},{"faa":"HRT","name":"Hurlburt Fld","lat":30.427803,"lon":-86.689278,"alt":38,"tz":-6,"dst":"A","tzone":"America\/Chicago"},{"faa":"HSH","name":"Henderson Executive Airport","lat":35.972778,"lon":-115.134444,"alt":1881,"tz":-8,"dst":"A","tzone":"America\/Los_Angeles"},{"faa":"HSL","name":"Huslia Airport","lat":65.697778,"lon":-156.351389,"alt":213,"tz":-9,"dst":"A","tzone":"America\/Anchorage"},{"faa":"HST","name":"Homestead Arb","lat":25.48855,"lon":-80.383567,"alt":6,"tz":-5,"dst":"A","tzone":"America\/New_York"},{"faa":"HSV","name":"Huntsville International Airport-Carl T Jones Field","lat":34.6371944,"lon":-86.7750556,"alt":629,"tz":-6,"dst":"A","tzone":"America\/Chicago"},{"faa":"HTL","name":"Roscommon Co","lat":44.359806,"lon":-84.671112,"alt":1150,"tz":-5,"dst":"A","tzone":"America\/New_York"},{"faa":"HTS","name":"Tri State Milton J Ferguson Field","lat":38.3667,"lon":-82.558,"alt":828,"tz":-5,"dst":"A","tzone":"America\/New_York"},{"faa":"HUA","name":"Redstone Aaf","lat":34.678653,"lon":-86.684781,"alt":685,"tz":-6,"dst":"A","tzone":"America\/Chicago"},{"faa":"HUF","name":"Terre Haute Intl Hulman Fld","lat":39.451464,"lon":-87.307561,"alt":589,"tz":-5,"dst":"A","tzone":"America\/New_York"},{"faa":"HUL","name":"Houlton Intl","lat":46.123083,"lon":-67.792056,"alt":489,"tz":-5,"dst":"A","tzone":"America\/New_York"},{"faa":"HUS","name":"Hughes Airport","lat":66.039167,"lon":-154.264722,"alt":299,"tz":-9,"dst":"A","tzone":"America\/Anchorage"},{"faa":"HUT","name":"Hutchinson Municipal Airport","lat":38.0655,"lon":-97.8606,"alt":1543,"tz":-6,"dst":"A","tzone":"America\/Chicago"},{"faa":"HVN","name":"Tweed-New Haven Airport","lat":41.26375,"lon":-72.886806,"alt":14,"tz":-5,"dst":"A","tzone":"America\/New_York"},{"faa":"HVR","name":"Havre City Co","lat":48.542983,"lon":-109.762342,"alt":2590,"tz":-7,"dst":"A","tzone":"America\/Denver"},{"faa":"HWD","name":"Hayward Executive Airport","lat":37.6588888889,"lon":-122.1216666667,"alt":52,"tz":-8,"dst":"A","tzone":"America\/Los_Angeles"},{"faa":"HWO","name":"North Perry","lat":26.001222,"lon":-80.240722,"alt":8,"tz":-5,"dst":"A","tzone":"America\/New_York"},{"faa":"HXD","name":"Hilton Head Airport","lat":32.2243611,"lon":-80.6974722,"alt":19,"tz":-5,"dst":"A","tzone":"America\/New_York"},{"faa":"HYA","name":"Barnstable Muni Boardman Polando Fld","lat":41.669336,"lon":-70.280356,"alt":55,"tz":-5,"dst":"A","tzone":"America\/New_York"},{"faa":"HYG","name":"Hydaburg Seaplane Base","lat":55.206389,"lon":-132.828333,"alt":0,"tz":-9,"dst":"A","tzone":"America\/Anchorage"},{"faa":"HYL","name":"Hollis Seaplane Base","lat":55.481667,"lon":-132.646111,"alt":0,"tz":-9,"dst":"A","tzone":"America\/Anchorage"},{"faa":"HYS","name":"Hays Regional Airport","lat":38.8422,"lon":-99.2732,"alt":1998,"tz":-6,"dst":"A","tzone":"America\/Chicago"},{"faa":"HZL","name":"Hazleton Municipal","lat":40.989167,"lon":-76.0025,"alt":1603,"tz":-5,"dst":"A","tzone":"America\/New_York"},{"faa":"IAB","name":"Mc Connell Afb","lat":37.621853,"lon":-97.268192,"alt":1371,"tz":-6,"dst":"A","tzone":"America\/Chicago"},{"faa":"IAD","name":"Washington Dulles Intl","lat":38.944533,"lon":-77.455811,"alt":313,"tz":-5,"dst":"A","tzone":"America\/New_York"},{"faa":"IAG","name":"Niagara Falls Intl","lat":43.107333,"lon":-78.946194,"alt":589,"tz":-5,"dst":"A","tzone":"America\/New_York"},{"faa":"IAH","name":"George Bush Intercontinental","lat":29.984433,"lon":-95.341442,"alt":97,"tz":-6,"dst":"A","tzone":"America\/Chicago"},{"faa":"IAN","name":"Bob Baker Memorial Airport","lat":66.975833,"lon":-160.436667,"alt":166,"tz":-9,"dst":"A","tzone":"America\/Anchorage"},{"faa":"ICT","name":"Wichita Mid Continent","lat":37.649944,"lon":-97.433056,"alt":1333,"tz":-6,"dst":"A","tzone":"America\/Chicago"},{"faa":"ICY","name":"Icy Bay Airport","lat":59.968889,"lon":-141.661667,"alt":50,"tz":-9,"dst":"A","tzone":"America\/Anchorage"},{"faa":"IDA","name":"Idaho Falls Rgnl","lat":43.514556,"lon":-112.07075,"alt":4744,"tz":-7,"dst":"A","tzone":"America\/Denver"},{"faa":"IDL","name":"Idlewild Intl","lat":40.639751,"lon":-73.778924,"alt":13,"tz":-5,"dst":"A","tzone":"America\/New_York"},{"faa":"IFP","name":"Laughlin-Bullhead Intl","lat":35.1574,"lon":-114.56,"alt":695,"tz":-7,"dst":"A","tzone":"America\/Phoenix"},{"faa":"IGG","name":"Igiugig Airport","lat":59.324,"lon":-155.902,"alt":90,"tz":-9,"dst":"A","tzone":"America\/Anchorage"},{"faa":"IGM","name":"Kingman Airport","lat":35.2595,"lon":-113.938,"alt":3449,"tz":-7,"dst":"A","tzone":"America\/Phoenix"},{"faa":"IGQ","name":"Lansing Municipal","lat":41.5349167,"lon":-87.5295278,"alt":620,"tz":-6,"dst":"A","tzone":"America\/Chicago"},{"faa":"IJD","name":"Windham Airport","lat":41.7440278,"lon":-72.1802222,"alt":246,"tz":-5,"dst":"A","tzone":"America\/New_York"},{"faa":"IKK","name":"Greater Kankakee","lat":41.071389,"lon":-87.846278,"alt":630,"tz":-6,"dst":"A","tzone":"America\/Chicago"},{"faa":"IKO","name":"Nikolski Air Station","lat":52.941667,"lon":-168.848889,"alt":77,"tz":-9,"dst":"A","tzone":"America\/Anchorage"},{"faa":"IKR","name":"Kirtland Air Force Base","lat":35.040222,"lon":-106.609194,"alt":5355,"tz":-7,"dst":"A","tzone":"America\/Denver"},{"faa":"IKV","name":"Ankeny Regl Airport","lat":41.691389,"lon":-93.566389,"alt":910,"tz":-6,"dst":"A","tzone":"America\/Chicago"},{"faa":"ILG","name":"New Castle","lat":39.678722,"lon":-75.606528,"alt":79,"tz":-5,"dst":"A","tzone":"America\/New_York"},{"faa":"ILI","name":"Iliamna","lat":59.754356,"lon":-154.910961,"alt":186,"tz":-9,"dst":"A","tzone":"America\/Anchorage"},{"faa":"ILM","name":"Wilmington Intl","lat":34.270615,"lon":-77.902569,"alt":32,"tz":-5,"dst":"A","tzone":"America\/New_York"},{"faa":"ILN","name":"Wilmington Airborne Airpark","lat":39.42792,"lon":-83.792118,"alt":1077,"tz":-5,"dst":"U","tzone":"America\/New_York"},{"faa":"IMM","name":"Immokalee","lat":26.433889,"lon":-81.401389,"alt":37,"tz":-5,"dst":"A","tzone":"America\/New_York"},{"faa":"IMT","name":"Ford Airport","lat":45.8183611,"lon":-88.1145556,"alt":1182,"tz":-6,"dst":"A","tzone":"America\/Chicago"},{"faa":"IND","name":"Indianapolis Intl","lat":39.717331,"lon":-86.294383,"alt":797,"tz":-5,"dst":"A","tzone":"America\/New_York"},{"faa":"INJ","name":"Hillsboro Muni","lat":32.083486,"lon":-97.097228,"alt":685,"tz":-6,"dst":"A","tzone":"America\/Chicago"},{"faa":"INK","name":"Winkler Co","lat":31.779628,"lon":-103.201361,"alt":2822,"tz":-6,"dst":"A","tzone":"America\/Chicago"},{"faa":"INL","name":"Falls Intl","lat":48.566186,"lon":-93.403067,"alt":1185,"tz":-6,"dst":"A","tzone":"America\/Chicago"},{"faa":"INS","name":"Creech Afb","lat":36.587183,"lon":-115.673353,"alt":3133,"tz":-8,"dst":"A","tzone":"America\/Los_Angeles"},{"faa":"INT","name":"Smith Reynolds","lat":36.133722,"lon":-80.222,"alt":969,"tz":-5,"dst":"A","tzone":"America\/New_York"},{"faa":"INW","name":"Winslow-Lindbergh Regional Airport","lat":35.0219167,"lon":-110.7225278,"alt":4941,"tz":-7,"dst":"N","tzone":"America\/Phoenix"},{"faa":"IOW","name":"Iowa City Municipal Airport","lat":41.639244,"lon":-91.546503,"alt":668,"tz":-6,"dst":"A","tzone":"America\/Chicago"},{"faa":"IPL","name":"Imperial Co","lat":32.834219,"lon":-115.578744,"alt":-54,"tz":-8,"dst":"A","tzone":"America\/Los_Angeles"},{"faa":"IPT","name":"Williamsport Rgnl","lat":41.241836,"lon":-76.921094,"alt":529,"tz":-5,"dst":"A","tzone":"America\/New_York"},{"faa":"IRC","name":"Circle City Airport","lat":65.827778,"lon":-144.076111,"alt":613,"tz":-9,"dst":"A","tzone":"America\/Anchorage"},{"faa":"IRK","name":"Kirksville Regional Airport","lat":40.0935,"lon":-92.5449,"alt":966,"tz":-6,"dst":"A","tzone":"America\/Chicago"},{"faa":"ISM","name":"Kissimmee Gateway Airport","lat":28.289806,"lon":-81.437083,"alt":82,"tz":-5,"dst":"A","tzone":"America\/New_York"},{"faa":"ISN","name":"Sloulin Fld Intl","lat":48.177939,"lon":-103.642347,"alt":1982,"tz":-6,"dst":"A","tzone":"America\/Chicago"},{"faa":"ISO","name":"Kinston Regional Jetport","lat":35.331389,"lon":-77.608889,"alt":94,"tz":-5,"dst":"A","tzone":"America\/New_York"},{"faa":"ISP","name":"Long Island Mac Arthur","lat":40.79525,"lon":-73.100222,"alt":99,"tz":-5,"dst":"A","tzone":"America\/New_York"},{"faa":"ISW","name":"Alexander Field South Wood County Airport","lat":44.3606456,"lon":-89.8381412,"alt":1021,"tz":-6,"dst":"A","tzone":"America\/Chicago"},{"faa":"ITH","name":"Ithaca Tompkins Rgnl","lat":42.491028,"lon":-76.458444,"alt":1099,"tz":-5,"dst":"A","tzone":"America\/New_York"},{"faa":"ITO","name":"Hilo Intl","lat":19.721375,"lon":-155.048469,"alt":38,"tz":-10,"dst":"N","tzone":"Pacific\/Honolulu"},{"faa":"IWD","name":"Gogebic Iron County Airport","lat":46.5274747,"lon":-90.1313967,"alt":1230,"tz":-6,"dst":"U","tzone":"America\/Chicago"},{"faa":"IWS","name":"West Houston","lat":29.818194,"lon":-95.672611,"alt":111,"tz":-6,"dst":"A","tzone":"America\/Chicago"},{"faa":"IYK","name":"Inyokern Airport","lat":35.658889,"lon":-117.829444,"alt":2455,"tz":-8,"dst":"A","tzone":"America\/Los_Angeles"},{"faa":"IZG","name":"Eastern Slopes Regional","lat":43.9911389,"lon":-70.9478889,"alt":455,"tz":-5,"dst":"A","tzone":"America\/New_York"},{"faa":"JAC","name":"Jackson Hole Airport","lat":43.607333333,"lon":-110.73775,"alt":6451,"tz":-7,"dst":"A","tzone":"America\/Denver"},{"faa":"JAN","name":"Jackson Evers Intl","lat":32.311167,"lon":-90.075889,"alt":346,"tz":-6,"dst":"A","tzone":"America\/Chicago"},{"faa":"JAX","name":"Jacksonville Intl","lat":30.494056,"lon":-81.687861,"alt":30,"tz":-5,"dst":"A","tzone":"America\/New_York"},{"faa":"JBR","name":"Jonesboro Muni","lat":35.831708,"lon":-90.646417,"alt":262,"tz":-6,"dst":"A","tzone":"America\/Chicago"},{"faa":"JCI","name":"New Century AirCenter Airport","lat":38.8309167,"lon":-94.8903056,"alt":1087,"tz":-6,"dst":"A","tzone":"America\/Chicago"},{"faa":"JEF","name":"Jefferson City Memorial Airport","lat":38.5912,"lon":-92.1561,"alt":549,"tz":-6,"dst":"A","tzone":"America\/Chicago"},{"faa":"JES","name":"Jesup-Wayne County Airport","lat":31.553889,"lon":-81.8825,"alt":107,"tz":-5,"dst":"A","tzone":"America\/New_York"},{"faa":"JFK","name":"John F Kennedy Intl","lat":40.639751,"lon":-73.778925,"alt":13,"tz":-5,"dst":"A","tzone":"America\/New_York"},{"faa":"JGC","name":"Grand Canyon Heliport","lat":35.96666666,"lon":-112.13333333,"alt":2500,"tz":-7,"dst":"A","tzone":"America\/Phoenix"},{"faa":"JHM","name":"Kapalua","lat":20.962936,"lon":-156.673031,"alt":256,"tz":-10,"dst":"N","tzone":"Pacific\/Honolulu"},{"faa":"JHW","name":"Chautauqua County-Jamestown","lat":42.153333,"lon":-79.258056,"alt":525,"tz":-5,"dst":"A","tzone":"America\/New_York"},{"faa":"JKA","name":"Jack Edwards Airport","lat":30.2896389,"lon":-87.6717778,"alt":17,"tz":-6,"dst":"A","tzone":"America\/Chicago"},{"faa":"JLN","name":"Joplin Rgnl","lat":37.151814,"lon":-94.498269,"alt":981,"tz":-6,"dst":"A","tzone":"America\/Chicago"},{"faa":"JMS","name":"Jamestown Regional Airport","lat":46.9297,"lon":-98.6782,"alt":1498,"tz":-6,"dst":"A","tzone":"America\/Chicago"},{"faa":"JNU","name":"Juneau Intl","lat":58.354972,"lon":-134.576278,"alt":21,"tz":-9,"dst":"A","tzone":"America\/Anchorage"},{"faa":"JOT","name":"Regional Airport","lat":41.517778,"lon":-88.175556,"alt":582,"tz":-6,"dst":"A","tzone":"America\/Chicago"},{"faa":"JRA","name":"West 30th St. Heliport","lat":40.7545,"lon":-74.0071,"alt":7,"tz":-5,"dst":"A","tzone":"America\/New_York"},{"faa":"JRB","name":"Wall Street Heliport","lat":40.701214,"lon":-74.009028,"alt":7,"tz":-5,"dst":"A","tzone":"America\/New_York"},{"faa":"JST","name":"John Murtha Johnstown-Cambria County Airport","lat":40.316111,"lon":-78.833889,"alt":2284,"tz":-5,"dst":"A","tzone":"America\/New_York"},{"faa":"JVL","name":"Southern Wisconsin Regional Airport","lat":42.62025,"lon":-89.0415556,"alt":808,"tz":-6,"dst":"A","tzone":"America\/Chicago"},{"faa":"JXN","name":"Reynolds Field","lat":42.260556,"lon":-84.460556,"alt":1001,"tz":-5,"dst":"A","tzone":"America\/New_York"},{"faa":"JYL","name":"Plantation Airpark","lat":32.6452778,"lon":-81.5971111,"alt":188,"tz":-5,"dst":"A","tzone":"America\/New_York"},{"faa":"JYO","name":"Leesburg Executive Airport","lat":39.078,"lon":-77.558,"alt":389,"tz":-5,"dst":"A","tzone":"America\/New_York"},{"faa":"JZP","name":"Pickens County Airport","lat":34.4534722,"lon":-84.4572222,"alt":1535,"tz":-5,"dst":"A","tzone":"America\/New_York"},{"faa":"K03","name":"Wainwright As","lat":70.613378,"lon":-159.86035,"alt":35,"tz":-9,"dst":"A","tzone":"America\/Anchorage"},{"faa":"K27","name":"Burrello-Mechanicville Airport","lat":42.893133,"lon":-73.66845,"alt":195,"tz":-5,"dst":"A","tzone":"America\/New_York"},{"faa":"K83","name":"Sabetha Municipal","lat":39.5425,"lon":-95.4677,"alt":1330,"tz":-6,"dst":"A","tzone":"America\/Chicago"},{"faa":"KAE","name":"Kake Seaplane Base","lat":56.973056,"lon":-133.945556,"alt":0,"tz":-9,"dst":"A","tzone":"America\/Anchorage"},{"faa":"KAL","name":"Kaltag Airport","lat":64.3191,"lon":-158.741,"alt":187,"tz":-9,"dst":"A","tzone":"America\/Anchorage"},{"faa":"KBC","name":"Birch Creek Airport","lat":66.256708,"lon":-145.815319,"alt":450,"tz":-9,"dst":"A","tzone":"America\/Anchorage"},{"faa":"KBW","name":"Chignik Bay Seaplane Base","lat":56.295556,"lon":-158.401398,"alt":0,"tz":-9,"dst":"A","tzone":"America\/Anchorage"},{"faa":"KCC","name":"Coffman Cove Seaplane Base","lat":56.014722,"lon":-132.833889,"alt":0,"tz":-9,"dst":"A","tzone":"America\/Anchorage"},{"faa":"KCL","name":"Chignik Lagoon Airport","lat":56.311111,"lon":-158.534167,"alt":25,"tz":-9,"dst":"A","tzone":"America\/Anchorage"},{"faa":"KCQ","name":"Chignik Lake Airport","lat":56.255,"lon":-158.775278,"alt":50,"tz":-9,"dst":"A","tzone":"America\/Anchorage"},{"faa":"KEH","name":"Kenmore Air Harbor Inc Seaplane Base","lat":47.7548,"lon":-122.259,"alt":14,"tz":-8,"dst":"A","tzone":"America\/Los_Angeles"},{"faa":"KEK","name":"Ekwok Airport","lat":59.356944,"lon":-157.471111,"alt":135,"tz":-9,"dst":"A","tzone":"America\/Anchorage"},{"faa":"KFP","name":"False Pass Airport","lat":54.8475,"lon":-163.410278,"alt":20,"tz":-9,"dst":"A","tzone":"America\/Anchorage"},{"faa":"KGK","name":"Koliganek Airport","lat":59.726667,"lon":-157.259444,"alt":269,"tz":-9,"dst":"A","tzone":"America\/Anchorage"},{"faa":"KGX","name":"Grayling Airport","lat":62.894444,"lon":-160.065,"alt":99,"tz":-9,"dst":"A","tzone":"America\/Anchorage"},{"faa":"KKA","name":"Koyuk Alfred Adams Airport","lat":64.939444,"lon":-161.154167,"alt":154,"tz":-9,"dst":"A","tzone":"America\/Anchorage"},{"faa":"KKB","name":"Kitoi Bay Seaplane Base","lat":58.190833,"lon":-152.370556,"alt":0,"tz":-9,"dst":"A","tzone":"America\/Anchorage"},{"faa":"KKH","name":"Kongiganak Airport","lat":59.960833,"lon":-162.881111,"alt":30,"tz":-9,"dst":"A","tzone":"America\/Anchorage"},{"faa":"KLG","name":"Kalskag Airport","lat":61.5363,"lon":-160.341,"alt":55,"tz":-9,"dst":"A","tzone":"America\/Anchorage"},{"faa":"KLL","name":"Levelock Airport","lat":59.128056,"lon":-156.858611,"alt":39,"tz":-9,"dst":"A","tzone":"America\/Anchorage"},{"faa":"KLN","name":"Larsen Bay Airport","lat":57.535,"lon":-153.976667,"alt":87,"tz":-9,"dst":"A","tzone":"America\/Anchorage"},{"faa":"KLS","name":"Kelso Longview","lat":46.118,"lon":-122.898389,"alt":20,"tz":-8,"dst":"A","tzone":"America\/Los_Angeles"},{"faa":"KLW","name":"Klawock Airport","lat":55.579167,"lon":-133.076111,"alt":80,"tz":-9,"dst":"A","tzone":"America\/Anchorage"},{"faa":"KMO","name":"Manokotak Airport","lat":58.990278,"lon":-159.05,"alt":51,"tz":-9,"dst":"A","tzone":"America\/Anchorage"},{"faa":"KMY","name":"Moser Bay Seaplane Base","lat":57.025556,"lon":-154.145833,"alt":0,"tz":-9,"dst":"A","tzone":"America\/Anchorage"},{"faa":"KNW","name":"New Stuyahok Airport","lat":59.4499,"lon":-157.328,"alt":302,"tz":-9,"dst":"A","tzone":"America\/Anchorage"},{"faa":"KOA","name":"Kona Intl At Keahole","lat":19.738767,"lon":-156.045631,"alt":47,"tz":-10,"dst":"N","tzone":"Pacific\/Honolulu"},{"faa":"KOT","name":"Kotlik Airport","lat":63.030556,"lon":-163.532778,"alt":15,"tz":-9,"dst":"A","tzone":"America\/Anchorage"},{"faa":"KOY","name":"Olga Bay Seaplane Base","lat":57.161389,"lon":-154.229722,"alt":0,"tz":-9,"dst":"A","tzone":"America\/Anchorage"},{"faa":"KOZ","name":"Ouzinkie Airport","lat":57.922876,"lon":-152.500511,"alt":55,"tz":-9,"dst":"A","tzone":"America\/Anchorage"},{"faa":"KPB","name":"Point Baker Seaplane Base","lat":56.351944,"lon":-133.6225,"alt":0,"tz":-9,"dst":"A","tzone":"America\/Anchorage"},{"faa":"KPC","name":"Port Clarence Coast Guard Station","lat":65.2537,"lon":-166.859,"alt":10,"tz":-9,"dst":"A","tzone":"America\/Anchorage"},{"faa":"KPN","name":"Kipnuk Airport","lat":59.933056,"lon":-164.030556,"alt":11,"tz":-9,"dst":"A","tzone":"America\/Anchorage"},{"faa":"KPR","name":"Port Williams Seaplane Base","lat":58.49,"lon":-152.582222,"alt":0,"tz":-9,"dst":"A","tzone":"America\/Anchorage"},{"faa":"KPV","name":"Perryville Airport","lat":55.906667,"lon":-159.160833,"alt":29,"tz":-9,"dst":"A","tzone":"America\/Anchorage"},{"faa":"KPY","name":"Port Bailey Seaplane Base","lat":57.93,"lon":-153.040556,"alt":0,"tz":-9,"dst":"A","tzone":"America\/Anchorage"},{"faa":"KQA","name":"Akutan Seaplane Base","lat":54.1325,"lon":-165.785,"alt":0,"tz":-9,"dst":"A","tzone":"America\/Anchorage"},{"faa":"KSM","name":"St Marys Airport","lat":62.0605,"lon":-163.302,"alt":311,"tz":-9,"dst":"A","tzone":"America\/Anchorage"},{"faa":"KTB","name":"Thorne Bay Seaplane Base","lat":55.688056,"lon":-132.536667,"alt":0,"tz":-9,"dst":"A","tzone":"America\/Anchorage"},{"faa":"KTN","name":"Ketchikan Intl","lat":55.355556,"lon":-131.71375,"alt":88,"tz":-9,"dst":"A","tzone":"America\/Anchorage"},{"faa":"KTS","name":"Brevig Mission Airport","lat":65.331389,"lon":-166.465833,"alt":35,"tz":-9,"dst":"A","tzone":"America\/Anchorage"},{"faa":"KUK","name":"Kasigluk Airport","lat":60.873333,"lon":-162.524444,"alt":40,"tz":-9,"dst":"A","tzone":"America\/Anchorage"},{"faa":"KVC","name":"King Cove Airport","lat":55.1163,"lon":-162.266,"alt":155,"tz":-9,"dst":"A","tzone":"America\/Anchorage"},{"faa":"KVL","name":"Kivalina Airport","lat":67.7362,"lon":-164.563,"alt":13,"tz":-9,"dst":"A","tzone":"America\/Anchorage"},{"faa":"KWK","name":"Kwigillingok Airport","lat":59.876389,"lon":-163.168611,"alt":18,"tz":-9,"dst":"A","tzone":"America\/Anchorage"},{"faa":"KWN","name":"Quinhagak Airport","lat":59.755,"lon":-161.845278,"alt":42,"tz":-9,"dst":"A","tzone":"America\/Anchorage"},{"faa":"KWP","name":"West Point Village Seaplane Base","lat":57.77,"lon":-153.548889,"alt":0,"tz":-9,"dst":"A","tzone":"America\/Anchorage"},